offer_id,source,url,title,price_amount,price_currency,price_per_m2,area_m2,rooms,city,district,street,lat,lon,posted_at,updated_at
mzn2046408664,morizon,https://www.morizon.pl/oferta/sprzedaz-mieszkanie-gdansk-stogi-skiby-9-61m2-mzn2046408664,Gotowe mieszkanie 3 pok z dużym balkonem od Dewelopera,799900.0,PLN,12998.0,61.54,3.0,Gdansk,Stogi,Skiby,54.3644969,18.7076338,,
mzn2046505618,morizon,https://www.morizon.pl/oferta/sprzedaz-mieszkanie-gdansk-ujescisko-lostowice-53m2-mzn2046505618,53 M2 Gdańsk Ujeścisko - 3 pokoje - 2 piętro - ekspozycja E/W,559000.0,PLN,10547.0,53.0,3.0,Gdansk,Ujescisko,Lostowice,54.31911,18.5918006,,
mzn2046470196,morizon,https://www.morizon.pl/oferta/sprzedaz-mieszkanie-gdansk-stogi-skiby-44m2-mzn2046470196,"Nowe mieszkanie 2 pokojowe z garderobą, gotowe do zamieszkania",689000.0,PLN,15659.0,44.0,2.0,Gdansk,Stogi,Skiby,54.3644969,18.7076338,,
mzn2042749997,morizon,https://www.morizon.pl/oferta/sprzedaz-mieszkanie-gdansk-stogi-skiby-32m2-mzn2042749997,GOTOWE mieszkanie 2 pokoje z ogródkiem 51mkw,516900.0,PLN,15905.0,32.5,2.0,Gdansk,Stogi,Skiby,54.3644969,18.7076338,,
mzn2045752188,morizon,https://www.morizon.pl/oferta/sprzedaz-mieszkanie-gdansk-orunia-gorna-gdansk-poludnie-borkowska-67m2-mzn2045752188,Mieszkanie na sprzedaż - 67 m² - 4 pokoje Orunia Górna-Gdańsk Południe Gdańsk,356000.0,PLN,13883.0,25.64,4.0,Gdansk,Orunia,Gorna,54.347549,18.641673,,
mzn2045450940,morizon,https://www.morizon.pl/oferta/sprzedaz-mieszkanie-gdansk-aniolki-powstancow-warszawskich-107m2-mzn2045450940,Mieszkanie na sprzedaż - 107 m² - 4 pokoje Aniołki Gdańsk,2158600.0,PLN,20000.0,107.93,4.0,Gdansk,Aniolki,Powstancow,54.3523596,18.6365678,,
mzn2046468423,morizon,https://www.morizon.pl/oferta/sprzedaz-mieszkanie-gdansk-srodmiescie-angielska-grobla-47m2-mzn2046468423,Apartament 2 pokojowy Riverview Gdańsk Angielska Grobla,1199000.0,PLN,25456.0,47.1,2.0,Gdansk,Srodmiescie,Angielska,54.35035155,18.6558259,,
mzn2045080795,morizon,https://www.morizon.pl/oferta/sprzedaz-mieszkanie-gdansk-wyspa-sobieszewska-wioslowa-27m2-mzn2045080795,Apartament - 800 m od morza. Pierwsza linia - Widok na las,499000.0,PLN,18232.0,27.37,2.0,Gdansk,Wyspa,Sobieszewska,54.3495744,18.8163304,,
mzn2045080839,morizon,https://www.morizon.pl/oferta/sprzedaz-mieszkanie-gdansk-wyspa-sobieszewska-wioslowa-55m2-mzn2045080839,Apartment nad morzem. Pierwsza linia 800 m od morza. Widok na las z 12 metrów,899000.0,PLN,16271.0,55.25,4.0,Gdansk,Wyspa,Sobieszewska,54.3495744,18.8163304,,
mzn2046286501,morizon,https://www.morizon.pl/oferta/sprzedaz-mieszkanie-gdansk-srodmiescie-zielona-60m2-mzn2046286501,15 minut spacerem od Starówki i SKM ׀ przy rzece ׀ wysokie stropy,899000.0,PLN,14983.0,61.0,3.0,Gdansk,Srodmiescie,Zielona,54.3401019,18.6542044,,
mzn2046275729,morizon,https://www.morizon.pl/oferta/sprzedaz-mieszkanie-gdansk-srodmiescie-aleja-ksiedza-jerzego-popieluszki-75m2-mzn2046275729,PANORAMICZNY widok - Gdańsk Żurawie Śródmieście - ZAKUP BEZ PCC BEZ PROWIZJI,1850000.0,PLN,24371.0,75.91,3.0,Gdansk,Srodmiescie,Aleja,54.391633,18.5996092,,
mzn2046183261,morizon,https://www.morizon.pl/oferta/sprzedaz-mieszkanie-gdansk-ujescisko-lostowice-kmdr-tadeusza-braminskiego-51m2-mzn2046183261,PANORAMICZNY WIDOK - 3pokoje - BEZ PROWIZJI,765000.0,PLN,14849.0,51.52,3.0,Gdansk,Ujescisko,Lostowice,54.31911,18.5918006,,
mzn2046479760,morizon,https://www.morizon.pl/oferta/sprzedaz-mieszkanie-gdansk-brzezno-uczniowska-39m2-mzn2046479760,Mieszkanie na sprzedaż - 39 m² - 2 pokoje Brzeźno Gdańsk,653874.0,PLN,16600.0,39.39,2.0,Gdansk,Brzezno,Uczniowska,54.4045806,18.63265165,,
mzn2046099923,morizon,https://www.morizon.pl/oferta/sprzedaz-mieszkanie-gdansk-jasien-osinskiego-39m2-mzn2046099923,Mieszkanie na sprzedaż - 39 m² - 2 pokoje Kiełpinek Gdańsk Jasień,488717.0,PLN,12267.0,40.0,2.0,Gdansk,Jasien,Osinskiego,54.35220426,18.531188965,,
mzn2045874873,morizon,https://www.morizon.pl/oferta/sprzedaz-mieszkanie-gdansk-jasien-osinskiego-80m2-mzn2045874873,Mieszkanie na sprzedaż - 80 m² - 4 pokoje Kiełpinek Gdańsk Jasień,926697.0,PLN,11565.0,84.0,4.0,Gdansk,Jasien,Osinskiego,54.35220426,18.531188965,,
mzn2046391715,morizon,https://www.morizon.pl/oferta/sprzedaz-mieszkanie-gdansk-zabianka-wejhera-jelitkowo-tysiaclecia-chlopska-92m2-mzn2046391715,Słoneczne mieszkanie z dwoma balkonami,1850000.0,PLN,20109.0,92.0,3.0,Gdansk,Zabianka,Wejhera,54.420412,18.5831153,,
mzn2046468211,morizon,https://www.morizon.pl/oferta/sprzedaz-mieszkanie-gdansk-jasien-przytulna-86m2-mzn2046468211,"Gdańsk Jasień, osiedle Wiszące Ogrody, ul. Przytulna, 4 pokoje, 86 m2",21220000.0,PLN,14186.0,1495.84,4.0,Gdansk,Jasien,Przytulna,54.3494829,18.5343013,,
mzn2046380692,morizon,https://www.morizon.pl/oferta/sprzedaz-mieszkanie-gdansk-przymorze-jelitkowski-dwor-47m2-mzn2046380692,Mieszkanie dwupokojowe 47.60m2 w Gdańsk,980000.0,PLN,20588.0,48.0,2.0,Gdansk,Przymorze,Jelitkowski,54.4258724,18.5951116,,
mzn2046278020,morizon,https://www.morizon.pl/oferta/sprzedaz-mieszkanie-gdansk-chelm-zlota-68m2-mzn2046278020,Mieszkanie Gdańsk | Gotowe do wprowadzenia |Bez Prowizji. BEZ podatku PCC 2%,779000.0,PLN,11372.0,68.5,3.0,Gdansk,Chelm,Zlota,54.3128224,18.598593,,
mzn2046246200,morizon,https://www.morizon.pl/oferta/sprzedaz-mieszkanie-gdansk-oliwa-opacka-68m2-mzn2046246200,"Ekskluzywny apartament w samym Parku Oliwskim z pięknym, prywatnym ogrodem",2142000.0,PLN,31500.0,68.0,3.0,Gdansk,Oliwa,Opacka,54.4100946,18.5554308,,
mzn2046267144,morizon,https://www.morizon.pl/oferta/sprzedaz-mieszkanie-gdansk-zaspa-dywizjonu-303-73m2-mzn2046267144,SPRZEDAM !!! 4-pokojowe mieszkanie na Zaspie,920000.0,PLN,12534.0,73.4,4.0,Gdansk,Zaspa,Dywizjonu,54.39645835,18.605411150000002,,
mzn2045080876,morizon,https://www.morizon.pl/oferta/sprzedaz-mieszkanie-gdansk-wyspa-sobieszewska-36m2-mzn2045080876,Apartment nad morzem. 15 minut od Centrum Gdańska na Wyspie Sobieszewskiej,559000.0,PLN,15290.0,36.56,2.0,Gdansk,Wyspa,Sobieszewska,54.3495744,18.8163304,,
mzn2046282486,morizon,https://www.morizon.pl/oferta/sprzedaz-mieszkanie-gdansk-zaspa-pilotow-73m2-mzn2046282486,"Mieszkanie blisko morza , blisko SKM",1250000.0,PLN,17004.0,73.51,3.0,Gdansk,Zaspa,Pilotow,54.39410087,18.598051075,,
mzn2046272406,morizon,https://www.morizon.pl/oferta/sprzedaz-mieszkanie-pomorskie-gdansk-chmielna-61m2-mzn2046272406,Elegancki apartament w sercu Gdańska ul. Chmielna,1399000.0,PLN,22886.0,61.13,3.0,Pomorskie,Gdansk,Chmielna,54.3445286,18.6559855,,
mzn2044334162,morizon,https://www.morizon.pl/oferta/sprzedaz-mieszkanie-gdansk-piecki-migowo-franciszka-rakoczego-79m2-mzn2044334162,Mieszkanie na sprzedaż - 79 m² - 4 pokoje Piecki-Migowo Gdańsk,1124009.0,PLN,14103.0,79.7,4.0,Gdansk,Piecki,Migowo,54.356155,18.578460200000002,,
mzn2044478789,morizon,https://www.morizon.pl/oferta/sprzedaz-mieszkanie-gdansk-piecki-migowo-franciszka-rakoczego-85m2-mzn2044478789,Mieszkanie na sprzedaż - 85 m² - 4 pokoje Piecki-Migowo Gdańsk,1159224.0,PLN,13582.0,88.0,4.0,Gdansk,Piecki,Migowo,54.356155,18.578460200000002,,
mzn2045452379,morizon,https://www.morizon.pl/oferta/sprzedaz-mieszkanie-gdansk-bretowo-lesna-gora-35m2-mzn2045452379,Mieszkanie na sprzedaż - 35 m² - 2 pokoje Niedźwiednik Gdańsk Brętowo,645808.0,PLN,18100.0,35.68,2.0,Gdansk,Bretowo,Lesna,54.4081817,18.556678,,
mzn2045752657,morizon,https://www.morizon.pl/oferta/sprzedaz-mieszkanie-gdansk-mlyniska-twarda-31m2-mzn2045752657,Mieszkanie na sprzedaż - 31 m² - 1 pokój Młyniska Gdańsk,356000.0,PLN,14800.0,24.05,2.0,Gdansk,Mlyniska,Twarda,54.3767209,18.6351035,,
mzn2045452418,morizon,https://www.morizon.pl/oferta/sprzedaz-mieszkanie-gdansk-bretowo-lesna-gora-59m2-mzn2045452418,Mieszkanie na sprzedaż - 59 m² - 3 pokoje Niedźwiednik Gdańsk Brętowo,942312.0,PLN,15800.0,62.0,3.0,Gdansk,Bretowo,Lesna,54.4081817,18.556678,,
mzn2046487408,morizon,https://www.morizon.pl/oferta/sprzedaz-mieszkanie-gdansk-srodmiescie-lakowa-61m2-mzn2046487408,Okazja! 3 pokoje w centrum Scala,1280000.0,PLN,20946.0,61.11,3.0,Gdansk,Srodmiescie,Lakowa,54.3419532,18.6603855,,
mzn2046491101,morizon,https://www.morizon.pl/oferta/sprzedaz-mieszkanie-gdansk-ujescisko-lostowice-wielkopolska-58m2-mzn2046491101,3 pokojowe mieszkanie - idealna inwestycja,738000.0,PLN,12724.0,58.0,3.0,Gdansk,Ujescisko,Lostowice,54.3119715,18.5930729,,
mzn2046495933,morizon,https://www.morizon.pl/oferta/sprzedaz-mieszkanie-gdansk-jasien-aleja-pawla-adamowicza-51m2-mzn2046495933,Mieszkanie 2-pokojowe | do własnej aranżacji,703920.0,PLN,13759.0,51.16,2.0,Gdansk,Jasien,Aleja,54.391633,18.5996092,,
mzn2046506111,morizon,https://www.morizon.pl/oferta/sprzedaz-mieszkanie-gdansk-mlyniska-ks-jerzego-popieluszki-44m2-mzn2046506111,Doki Living | 2 pokoje | stan deweloperski,1139085.0,PLN,25500.0,44.67,2.0,Gdansk,Mlyniska,Ks,54.3482907,18.6540233,,
mzn2046293943,morizon,https://www.morizon.pl/oferta/sprzedaz-mieszkanie-gdansk-srodmiescie-70m2-mzn2046293943,"3pokojowy apartament, ostatnie piętro -Śródmieście",1470000.0,PLN,21000.0,70.0,3.0,Gdansk,Srodmiescie,,54.35035155,18.6558259,,
mzn2046512105,morizon,https://www.morizon.pl/oferta/sprzedaz-mieszkanie-gdansk-wrzeszcz-52m2-mzn2046512105,52 m2 Gd. Wrzeszcz - eksp. południowo wschodnia - miejsce postojowe - kom. lok,783000.0,PLN,15058.0,52.0,2.0,Gdansk,Wrzeszcz,,54.37535543,18.60946655,,
mzn2045845496,morizon,https://www.morizon.pl/oferta/sprzedaz-mieszkanie-gdansk-oliwa-artura-grottgera-72m2-mzn2045845496,Kameralne | hala + komórka | piękna okolica,1999000.0,PLN,27641.0,72.32,3.0,Gdansk,Oliwa,Artura,54.4086874,18.5599567,,
mzn2046391531,morizon,https://www.morizon.pl/oferta/sprzedaz-mieszkanie-gdansk-srodmiescie-stara-stocznia-89m2-mzn2046391531,Brabank I Unique Apartment I 89m2,24000000.0,PLN,44944.0,534.0,4.0,Gdansk,Srodmiescie,Stara,54.3191523,18.6243062,,
mzn2045072683,morizon,https://www.morizon.pl/oferta/sprzedaz-mieszkanie-gdansk-ujescisko-lostowice-51m2-mzn2045072683,Perełka inwestycyjna/pakiet lub jedno/Łostowice,698000.0,PLN,13678.0,51.03,3.0,Gdansk,Ujescisko,Lostowice,54.3119715,18.5930729,,
mzn2046244065,morizon,https://www.morizon.pl/oferta/sprzedaz-mieszkanie-gdansk-srodmiescie-torunska-46m2-mzn2046244065,Stylowe 2 pokoje z widokiem na rzekę | Gdańsk,898000.0,PLN,19188.0,46.8,2.0,Gdansk,Srodmiescie,Torunska,54.3450985,18.6463188,,
mzn2045648420,morizon,https://www.morizon.pl/oferta/sprzedaz-mieszkanie-gdansk-srodmiescie-lakowa-41m2-mzn2045648420,Scala | Gdańsk | Inwestycyjnie,812195.0,PLN,19742.0,41.14,2.0,Gdansk,Srodmiescie,Lakowa,54.3419532,18.6603855,,
mzn2046500610,morizon,https://www.morizon.pl/oferta/sprzedaz-mieszkanie-gdansk-osowa-diany-75m2-mzn2046500610,Wyjątkowo Stylowe mieszkanie w sercu Gdańska Osowy,1099000.0,PLN,14653.0,76.0,3.0,Gdansk,Osowa,Diany,54.41971985,18.473725299999998,,
mzn2041362853,morizon,https://www.morizon.pl/oferta/sprzedaz-mieszkanie-gdansk-wyspa-sobieszewska-61m2-mzn2041362853,"Apartament 1000 m od morza, 15 min od Gdańska. Kamerlana inwestycja PURA VIDA",729000.0,PLN,11951.0,61.0,3.0,Gdansk,Wyspa,Sobieszewska,54.3495744,18.8163304,,
mzn2045750081,morizon,https://www.morizon.pl/oferta/sprzedaz-mieszkanie-gdansk-aniolki-dantyszka-59m2-mzn2045750081,Mieszkanie na sprzedaż - 59 m² - 3 pokoje Aniołki Gdańsk,356000.0,PLN,16345.0,21.78,3.0,Gdansk,Aniolki,Dantyszka,54.40085,18.5568182,,
mzn2046511885,morizon,https://www.morizon.pl/oferta/sprzedaz-mieszkanie-gdansk-wrzeszcz-stanislawa-wyspianskiego-50m2-mzn2046511885,Komfortowe mieszkanie 2-pokojowe w Gdańsku Wrzeszc,599000.0,PLN,11861.0,50.5,2.0,Gdansk,Wrzeszcz,Stanislawa,54.3456846,18.662427,,
mzn2046486630,morizon,https://www.morizon.pl/oferta/sprzedaz-mieszkanie-gdansk-piecki-migowo-mysliwska-60m2-mzn2046486630,3 pok. mieszkanie na Morenie + OGRÓD 250m2 + hala,899000.0,PLN,14924.0,60.24,3.0,Gdansk,Piecki,Migowo,54.356155,18.578460200000002,,
mzn2045750080,morizon,https://www.morizon.pl/oferta/sprzedaz-mieszkanie-gdansk-aniolki-dantyszka-92m2-mzn2045750080,Mieszkanie na sprzedaż - 92 m² - 4 pokoje Aniołki Gdańsk,356000.0,PLN,15679.0,22.71,4.0,Gdansk,Aniolki,Dantyszka,54.40085,18.5568182,,
mzn2046264154,morizon,https://www.morizon.pl/oferta/sprzedaz-mieszkanie-gdansk-siedlce-jacka-malczewskiego-59m2-mzn2046264154,Mieszkanie 3-pok. blisko centrum,795000.0,PLN,13475.0,59.0,3.0,Gdansk,Siedlce,Jacka,54.34931541,18.619122505,,
mzn2046254412,morizon,https://www.morizon.pl/oferta/sprzedaz-mieszkanie-gdansk-ujescisko-lostowice-wielkopolska-72m2-mzn2046254412,4 pokoje stan deweloperski gotowe ostatnie piętro,720000.0,PLN,10000.0,72.0,4.0,Gdansk,Ujescisko,Lostowice,54.3119715,18.5930729,,
mzn2045704005,morizon,https://www.morizon.pl/oferta/sprzedaz-mieszkanie-gdansk-letnica-letnicka-3-68m2-mzn2045704005,Mieszkanie na sprzedaż - 68 m² - 3 pokoje Letnica Gdańsk,937080.0,PLN,13700.0,68.4,3.0,Gdansk,Letnica,Letnicka,54.4036178,18.6511808,,
mzn2045703908,morizon,https://www.morizon.pl/oferta/sprzedaz-mieszkanie-gdansk-letnica-letnicka-3-32m2-mzn2045703908,Mieszkanie na sprzedaż - 32 m² - 1 pokój Letnica Gdańsk,560000.0,PLN,17500.0,32.0,2.0,Gdansk,Letnica,Letnicka,54.4036178,18.6511808,,
mzn2044248758,morizon,https://www.morizon.pl/oferta/sprzedaz-mieszkanie-gdansk-strzyza-wita-stwosza-77-51m2-mzn2044248758,Mieszkanie na sprzedaż - 51 m² - 2 pokoje Strzyża Gdańsk,356000.0,PLN,15413.0,23.1,2.0,Gdansk,Strzyza,Wita,54.38632375,18.5846829,,
mzn2046068070,morizon,https://www.morizon.pl/oferta/sprzedaz-mieszkanie-gdansk-strzyza-wita-stwosza-77-63m2-mzn2046068070,Mieszkanie na sprzedaż - 63 m² - 3 pokoje Strzyża Gdańsk,356000.0,PLN,15413.0,23.1,3.0,Gdansk,Strzyza,Wita,54.38632375,18.5846829,,
mzn2045282125,morizon,https://www.morizon.pl/oferta/sprzedaz-mieszkanie-gdansk-wyspa-sobieszewska-turystyczna-90-68m2-mzn2045282125,Mieszkanie na sprzedaż - 68 m² - 2 pokoje Wyspa Sobieszewska Gdańsk,356000.0,PLN,16271.0,21.88,2.0,Gdansk,Wyspa,Sobieszewska,54.3495744,18.8163304,,
mzn2044344081,morizon,https://www.morizon.pl/oferta/sprzedaz-mieszkanie-gdansk-srodmiescie-jaskolcza-46m2-mzn2044344081,Mieszkanie na sprzedaż - 46 m² - 2 pokoje Dolne Miasto Gdańsk Śródmieście,804450.0,PLN,17300.0,46.5,2.0,Gdansk,Srodmiescie,Jaskolcza,54.340224750000004,18.6594246,,
mzn2046408705,morizon,https://www.morizon.pl/oferta/sprzedaz-mieszkanie-gdansk-srodmiescie-jaskolcza-40m2-mzn2046408705,2 pokoje z loggią przy Motławie i Starym Mieście,585000.0,PLN,14444.0,40.5,2.0,Gdansk,Srodmiescie,Jaskolcza,54.3424048,18.6593977,,
mzn2044344080,morizon,https://www.morizon.pl/oferta/sprzedaz-mieszkanie-gdansk-srodmiescie-jaskolcza-91m2-mzn2044344080,Mieszkanie na sprzedaż - 91 m² - 4 pokoje Dolne Miasto Gdańsk Śródmieście,1457760.0,PLN,16000.0,91.11,4.0,Gdansk,Srodmiescie,Jaskolcza,54.340224750000004,18.6594246,,
mzn2046489976,morizon,https://www.morizon.pl/oferta/sprzedaz-mieszkanie-gdansk-nowy-port-wolnosci-44m2-mzn2046489976,"Przytulne mieszkanie 2-pokojowe | 44,3 m² | Gdańsk",589000.0,PLN,13296.0,44.3,2.0,Gdansk,Nowy,Port,54.4012178,18.662687249999998,,
mzn2046470047,morizon,https://www.morizon.pl/oferta/sprzedaz-mieszkanie-gdansk-osowa-homera-40m2-mzn2046470047,Bez PCC- Nowoczesne 3 pokojowe mieszkanie,639000.0,PLN,15821.0,40.39,3.0,Gdansk,Osowa,Homera,54.41971985,18.473725299999998,,
mzn2046294491,morizon,https://www.morizon.pl/oferta/sprzedaz-mieszkanie-gdansk-wrzeszcz-lwowska-39m2-mzn2046294491,Piękne mieszkanie 2-pok. z ogrodem. Klimatyczna dzielnica. Gdańsk Wrzeszcz,639000.0,PLN,16260.0,39.3,2.0,Gdansk,Wrzeszcz,Lwowska,54.38473064,18.615345955,,
mzn2045239168,morizon,https://www.morizon.pl/oferta/sprzedaz-mieszkanie-gdansk-ujescisko-lostowice-kazimierza-porebskiego-40m2-mzn2045239168,Sprzedam bezpośrednio,490000.0,PLN,12087.0,43.0,2.0,Gdansk,Ujescisko,Lostowice,54.3119715,18.5930729,,
mzn2046103439,morizon,https://www.morizon.pl/oferta/sprzedaz-mieszkanie-pomorskie-gdansk-ferdynanda-magellana-52m2-mzn2046103439,Sprzedam mieszkanie 2 pokojowe z ogródkiem,949000.0,PLN,17991.0,52.75,2.0,Pomorskie,Gdansk,Ferdynanda,53.124352,18.0012,,
mzn2046445174,morizon,https://www.morizon.pl/oferta/sprzedaz-mieszkanie-gdansk-chelm-tytusa-chalubinskiego-49m2-mzn2046445174,2-pokojowe mieszkanie w dobrej lokalizacji,600000.0,PLN,12097.0,50.0,2.0,Gdansk,Chelm,Tytusa,54.335441695,18.621740395,,
mzn2045712929,morizon,https://www.morizon.pl/oferta/sprzedaz-mieszkanie-gdansk-srodmiescie-stepkarska-31m2-mzn2045712929,Mieszkanie na sprzedaż - 31 m² - 1 pokój Śródmieście Gdańsk,605000.0,PLN,19466.0,33.0,2.0,Gdansk,Srodmiescie,Stepkarska,54.3571396,18.6632596,,
mzn2044770953,morizon,https://www.morizon.pl/oferta/sprzedaz-mieszkanie-gdansk-wrzeszcz-jesionowa-6b-49m2-mzn2044770953,Mieszkanie na sprzedaż - 49 m² - 2 pokoje Wrzeszcz Gdańsk,356000.0,PLN,11861.0,30.01,2.0,Gdansk,Wrzeszcz,Jesionowa,54.379389950000004,18.60313655,,
mzn2045894473,morizon,https://www.morizon.pl/oferta/sprzedaz-mieszkanie-gdansk-srodmiescie-stepkarska-102m2-mzn2045894473,Mieszkanie na sprzedaż - 102 m² - 4 pokoje Śródmieście Gdańsk,2765340.0,PLN,27000.0,106.0,4.0,Gdansk,Srodmiescie,Stepkarska,54.3571396,18.6632596,,
mzn2044861827,morizon,https://www.morizon.pl/oferta/sprzedaz-mieszkanie-pomorskie-gdansk-kamienna-grobla-46m2-mzn2044861827,Mieszkanie na sprzedaż - 46 m² - 2 pokoje Gdańsk,956120.0,PLN,20500.0,49.0,2.0,Pomorskie,Gdansk,Kamienna,53.6441851,15.6115523,,
mzn2044861821,morizon,https://www.morizon.pl/oferta/sprzedaz-mieszkanie-pomorskie-gdansk-kamienna-grobla-40m2-mzn2044861821,Mieszkanie na sprzedaż - 40 m² - 1 pokój Gdańsk,848190.0,PLN,21000.0,40.39,2.0,Pomorskie,Gdansk,Kamienna,53.6441851,15.6115523,,
mzn2045828412,morizon,https://www.morizon.pl/oferta/sprzedaz-mieszkanie-gdansk-srodmiescie-torunska-99m2-mzn2045828412,Mieszkanie na sprzedaż - 99 m² - 4 pokoje Śródmieście Gdańsk,356000.0,PLN,44944.0,7.92,4.0,Gdansk,Srodmiescie,Torunska,54.3450985,18.6463188,,
mzn2045828410,morizon,https://www.morizon.pl/oferta/sprzedaz-mieszkanie-gdansk-srodmiescie-torunska-91m2-mzn2045828410,Mieszkanie na sprzedaż - 91 m² - 3 pokoje Śródmieście Gdańsk,356000.0,PLN,24371.0,14.61,3.0,Gdansk,Srodmiescie,Torunska,54.3450985,18.6463188,,
mzn2046280122,morizon,https://www.morizon.pl/oferta/sprzedaz-mieszkanie-gdansk-jasien-gen-wladyslawa-andersa-80m2-mzn2046280122,Mieszkanie na sprzedaż - 80 m² - 4 pokoje Jasień Gdańsk,1074675.0,PLN,13350.0,80.5,4.0,Gdansk,Jasien,Gen,54.33519039,18.5497284,,
mzn2046511706,morizon,https://www.morizon.pl/oferta/sprzedaz-mieszkanie-gdansk-wrzeszcz-ferdynanda-magellana-54m2-mzn2046511706,54 m2 - 1/4 piętro - widok na las - eksp. południowo zachodnia,1170000.0,PLN,21667.0,54.0,2.0,Gdansk,Wrzeszcz,Ferdynanda,54.3617443,18.5815391,,
mzn2046483573,morizon,https://www.morizon.pl/oferta/sprzedaz-mieszkanie-gdansk-ujescisko-lostowice-ofiar-grudnia-70-66m2-mzn2046483573,Mieszkanie z balkonem i windą w nowym budownictwie,875000.0,PLN,13064.0,66.98,4.0,Gdansk,Ujescisko,Lostowice,54.3119715,18.5930729,,
mzn2045180227,morizon,https://www.morizon.pl/oferta/sprzedaz-mieszkanie-gdansk-srodmiescie-spichrzowa-18-29-81m2-mzn2045180227,Mieszkanie na sprzedaż - 81 m² - 1 pokój Śródmieście Gdańsk,2042800.0,PLN,24982.0,81.77,3.0,Gdansk,Srodmiescie,Spichrzowa,54.35035155,18.6558259,,
mzn2046112739,morizon,https://www.morizon.pl/oferta/sprzedaz-mieszkanie-gdansk-jasien-leszczynowa-58m2-mzn2046112739,"Tu się żyje wygodnie, tu zyskujesz spokój",769000.0,PLN,13139.0,58.53,3.0,Gdansk,Jasien,Leszczynowa,54.33519039,18.5497284,,
mzn2046490992,morizon,https://www.morizon.pl/oferta/sprzedaz-mieszkanie-gdansk-srodmiescie-60m2-mzn2046490992,"Apartament w Centrum Gdańska- 3-pok. (60,06 m2)",1291290.0,PLN,21500.0,60.06,2.0,Gdansk,Srodmiescie,,54.35035155,18.6558259,,
mzn2046511882,morizon,https://www.morizon.pl/oferta/sprzedaz-mieszkanie-gdansk-osowa-58m2-mzn2046511882,3 pokoje z dużum ogródkiem,799000.0,PLN,13663.0,58.48,3.0,Gdansk,Osowa,,54.41971985,18.473725299999998,,
mzn2046463058,morizon,https://www.morizon.pl/oferta/sprzedaz-mieszkanie-gdansk-srodmiescie-angielska-grobla-40m2-mzn2046463058,Apartament z widokiem na Stare Miasto,1050000.0,PLN,25672.0,40.9,2.0,Gdansk,Srodmiescie,Angielska,54.35035155,18.6558259,,
mzn2046168904,morizon,https://www.morizon.pl/oferta/sprzedaz-mieszkanie-gdansk-jasien-alfonsa-flisykowskiego-74m2-mzn2046168904,"Przestronne, słoneczne mieszkanie-2 miejsca w hali",888406.0,PLN,11994.0,74.07,3.0,Gdansk,Jasien,Alfonsa,54.3232552,18.5638526,,
mzn2046138290,morizon,https://www.morizon.pl/oferta/sprzedaz-mieszkanie-gdansk-piecki-migowo-prof-stefana-hausbrandta-51m2-mzn2046138290,"Komfortowe, w pełni urządzone! Od zaraz",750000.0,PLN,14549.0,51.55,2.0,Gdansk,Piecki,Migowo,54.356155,18.578460200000002,,
mzn2043096350,morizon,https://www.morizon.pl/oferta/sprzedaz-mieszkanie-gdansk-ujescisko-lostowice-sliwkowa-82m2-mzn2043096350,Mieszkanie na sprzedaż - 82 m² - 4 pokoje Ujeścisko-Łostowice Gdańsk,995830.0,PLN,12100.0,84.0,4.0,Gdansk,Ujescisko,Lostowice,54.3119715,18.5930729,,
mzn2045912271,morizon,https://www.morizon.pl/oferta/sprzedaz-mieszkanie-gdansk-jasien-alfonsa-flisykowskiego-60m2-mzn2045912271,Nowe budownictwo | Parking | Komórka,720000.0,PLN,11926.0,60.37,3.0,Gdansk,Jasien,Alfonsa,54.3232552,18.5638526,,
mzn2046190314,morizon,https://www.morizon.pl/oferta/sprzedaz-mieszkanie-gdansk-siedlce-kartuska-61m2-mzn2046190314,4 pokoje | blisko Centrum | balkon 9 m²,941094.0,PLN,15400.0,61.11,4.0,Gdansk,Siedlce,Kartuska,54.3488205,18.5305699,,
mzn2046190280,morizon,https://www.morizon.pl/oferta/sprzedaz-mieszkanie-gdansk-siedlce-kartuska-71m2-mzn2046190280,4 pokoje | blisko Centrum | balkon | taras + ogródek,1045475.0,PLN,14725.0,71.0,4.0,Gdansk,Siedlce,Kartuska,54.3488205,18.5305699,,
mzn2046190364,morizon,https://www.morizon.pl/oferta/sprzedaz-mieszkanie-gdansk-siedlce-kartuska-70m2-mzn2046190364,4 pokoje | blisko Centrum | balkon 9 m²,1175055.0,PLN,16625.0,70.68,4.0,Gdansk,Siedlce,Kartuska,54.3488205,18.5305699,,
mzn2046190350,morizon,https://www.morizon.pl/oferta/sprzedaz-mieszkanie-gdansk-siedlce-kartuska-53m2-mzn2046190350,3 pokoje | blisko Centrum,835657.0,PLN,15550.0,53.74,3.0,Gdansk,Siedlce,Kartuska,54.3488205,18.5305699,,
mzn2046190162,morizon,https://www.morizon.pl/oferta/sprzedaz-mieszkanie-gdansk-oliwa-artura-grottgera-96m2-mzn2046190162,Apartament Gdańsk Oliwa | 4 pokoje | Doskonała lokalizacja,2230513.0,PLN,23220.0,96.06,4.0,Gdansk,Oliwa,Artura,54.4086874,18.5599567,,
mzn2046190251,morizon,https://www.morizon.pl/oferta/sprzedaz-mieszkanie-gdansk-wrzeszcz-gen-jozefa-hallera-112m2-mzn2046190251,Apartament 5 pokoi | blisko plaży | blisko centrum,2151314.0,PLN,19116.0,112.54,3.0,Gdansk,Wrzeszcz,Gen,54.379389950000004,18.60313655,,
mzn2045895765,morizon,https://www.morizon.pl/oferta/sprzedaz-mieszkanie-gdansk-przerobka-karola-dickensa-42m2-mzn2045895765,"Mieszkanie 2-pok niedaleko tramwaju, plaży Stogi",459000.0,PLN,10877.0,42.2,2.0,Gdansk,Przerobka,Karola,54.3727577,18.6070158,,
mzn2044562736,morizon,https://www.morizon.pl/oferta/sprzedaz-mieszkanie-gdansk-siedlce-kartuska-69m2-mzn2044562736,4 pokoje | blisko Centrum | 2 balkony,947402.0,PLN,13536.0,69.99,4.0,Gdansk,Siedlce,Kartuska,54.3488205,18.5305699,,
mzn2045878341,morizon,https://www.morizon.pl/oferta/sprzedaz-mieszkanie-gdansk-zaspa-pilotow-31m2-mzn2045878341,Słoneczna kawalerka po remoncie z piwnicą,515000.0,PLN,16613.0,31.0,2.0,Gdansk,Zaspa,Pilotow,54.3960795,18.5887179,,
mzn2044292668,morizon,https://www.morizon.pl/oferta/sprzedaz-mieszkanie-gdansk-srodmiescie-stara-stocznia-164m2-mzn2044292668,Penthouse z panoramicznym widokiem w Brabank,5900000.0,PLN,35976.0,168.0,2.0,Gdansk,Srodmiescie,Stara,54.3191523,18.6243062,,
mzn2046490738,morizon,https://www.morizon.pl/oferta/sprzedaz-mieszkanie-gdansk-zabianka-wejhera-jelitkowo-tysiaclecia-jelitkowska-118m2-mzn2046490738,Wyjątkowy apartament przy morzu – Gdańsk Jelitkowo,4650000.0,PLN,39108.0,118.9,4.0,Gdansk,Zabianka,Wejhera,54.420412,18.5831153,,
mzn2046469059,morizon,https://www.morizon.pl/oferta/sprzedaz-mieszkanie-gdansk-letnica-sucha-39m2-mzn2046469059,"2 pokojowe, wysoki standard Nowa Letnica",745000.0,PLN,19083.0,39.04,2.0,Gdansk,Letnica,Sucha,54.38985155,18.6498714,,
mzn2046474875,morizon,https://www.morizon.pl/oferta/sprzedaz-mieszkanie-gdynia-srodmiescie-stefana-zeromskiego-38m2-mzn2046474875,Gdynia Śródmieście Żeromskiego/2 pokoje/200 plaża,849000.0,PLN,21803.0,38.94,2.0,Gdynia,Srodmiescie,Stefana,54.5191233,18.5419877,,
mzn2046489951,morizon,https://www.morizon.pl/oferta/sprzedaz-mieszkanie-gdansk-zaspa-aleja-jana-pawla-ii-49m2-mzn2046489951,Słoneczne mieszkanie 2km od morza 2 miejsca parkingowe w cenie,1079000.0,PLN,22020.0,49.0,2.0,Gdansk,Zaspa,Aleja,54.391633,18.5996092,,
mzn2046452616,morizon,https://www.morizon.pl/oferta/sprzedaz-mieszkanie-gdansk-jasien-potegowska-68m2-mzn2046452616,mieszkanie 3 pok + komórka + miejsce postojowe,699000.0,PLN,10279.0,68.0,3.0,Gdansk,Jasien,Potegowska,54.33519039,18.5497284,,
mzn2046292719,morizon,https://www.morizon.pl/oferta/sprzedaz-mieszkanie-gdansk-wrzeszcz-joachima-lelewela-48m2-mzn2046292719,2 pokoje/kameralnie/kamienica/centrum Wrzeszcza,699000.0,PLN,14562.0,48.0,2.0,Gdansk,Wrzeszcz,Joachima,54.3586317,18.5846757,,
mzn2046456568,morizon,https://www.morizon.pl/oferta/sprzedaz-mieszkanie-gdansk-ujescisko-lostowice-wielkopolska-38m2-mzn2046456568,2 pokoje na sprzedaż,559000.0,PLN,14711.0,38.0,2.0,Gdansk,Ujescisko,Lostowice,54.3119715,18.5930729,,
mzn2046426528,morizon,https://www.morizon.pl/oferta/sprzedaz-mieszkanie-gdansk-wyspa-sobieszewska-nadwislanska-43m2-mzn2046426528,Gotowa inwestycja - Faktura VAT 23% - Sobieszewo,609900.0,PLN,14184.0,43.0,2.0,Gdansk,Wyspa,Sobieszewska,54.3495744,18.8163304,,
mzn2043416461,morizon,https://www.morizon.pl/oferta/sprzedaz-mieszkanie-gdansk-ujescisko-lostowice-cedrowa-69m2-mzn2043416461,Mieszkanie na sprzedaż - 69 m² - 3 pokoje Ujeścisko-Łostowice Gdańsk,761778.0,PLN,10977.0,69.4,3.0,Gdansk,Ujescisko,Lostowice,54.3119715,18.5930729,,
mzn2046293390,morizon,https://www.morizon.pl/oferta/sprzedaz-mieszkanie-pomorskie-gdansk-juliusza-slowackiego-29m2-mzn2046293390,KAWALERKA W CENTRUM GDAŃSKA,469000.0,PLN,16172.0,29.0,2.0,Pomorskie,Gdansk,Juliusza,53.9627367,18.52909,,
mzn2046273551,morizon,https://www.morizon.pl/oferta/sprzedaz-mieszkanie-gdansk-piecki-migowo-franciszka-rakoczego-30m2-mzn2046273551,IDEALNA KAWALERKA W GDAŃSKU,499999.0,PLN,16667.0,30.0,3.0,Gdansk,Piecki,Migowo,54.356155,18.578460200000002,,
mzn2046491030,morizon,https://www.morizon.pl/oferta/sprzedaz-mieszkanie-gdansk-wrzeszcz-aleja-legionow-49m2-mzn2046491030,Gdańsk Wrzeszcz 3 pokoje w kamienicy z charakterem,719000.0,PLN,14673.0,49.0,3.0,Gdansk,Wrzeszcz,Aleja,54.391633,18.5996092,,
mzn2046411238,morizon,https://www.morizon.pl/oferta/sprzedaz-mieszkanie-gdansk-chelm-ptasia-54m2-mzn2046411238,Nowoczesne trzypokojowe miezskanie z ogródkiem,799000.0,PLN,14583.0,54.79,3.0,Gdansk,Chelm,Ptasia,54.335441695,18.621740395,,
mzn2046392937,morizon,https://www.morizon.pl/oferta/sprzedaz-mieszkanie-gdansk-srodmiescie-szeroka-44m2-mzn2046392937,"Bajkowy widok, wyjątkowa codzienność - 2 pok",1003440.0,PLN,22600.0,44.4,2.0,Gdansk,Srodmiescie,Szeroka,54.35326684,18.65405565,,
mzn2046364183,morizon,https://www.morizon.pl/oferta/sprzedaz-mieszkanie-gdansk-przymorze-obroncow-wybrzeza-46m2-mzn2046364183,Podzielone z myślą o zysku - Spektrum,1050000.0,PLN,22359.0,46.96,2.0,Gdansk,Przymorze,Obroncow,54.4067012,18.6669686,,
mzn2046421427,morizon,https://www.morizon.pl/oferta/sprzedaz-mieszkanie-gdansk-ujescisko-lostowice-92m2-mzn2046421427,"Mieszkanie 4 pokojowe 92,5 m² z dużym tarasem",1199000.0,PLN,12958.0,92.53,4.0,Gdansk,Ujescisko,Lostowice,54.31911,18.5918006,,
mzn2046456566,morizon,https://www.morizon.pl/oferta/sprzedaz-mieszkanie-pomorskie-gdansk-borkowska-37m2-mzn2046456566,2 pokoje na sprzedaż,535000.0,PLN,14459.0,37.0,2.0,Pomorskie,Gdansk,Borkowska,53.0523328,18.5742279,,
mzn2046280134,morizon,https://www.morizon.pl/oferta/sprzedaz-mieszkanie-gdansk-jasien-gen-wladyslawa-andersa-59m2-mzn2046280134,Mieszkanie na sprzedaż - 59 m² - 3 pokoje Jasień Gdańsk,950683.0,PLN,15850.0,59.98,3.0,Gdansk,Jasien,Gen,54.33519039,18.5497284,,
mzn2046433896,morizon,https://www.morizon.pl/oferta/sprzedaz-mieszkanie-gdansk-srodmiescie-gorka-81m2-mzn2046433896,Nietuzinkowy apartament - Gdańsk Główny,1600000.0,PLN,19753.0,81.0,3.0,Gdansk,Srodmiescie,Gorka,54.3379912,18.6186695,,
mzn2046279763,morizon,https://www.morizon.pl/oferta/sprzedaz-mieszkanie-gdansk-ujescisko-lostowice-cedrowa-34m2-mzn2046279763,"Super 2 pokoje, widok na zieleń, balkon, parking",545000.0,PLN,15936.0,34.2,2.0,Gdansk,Ujescisko,Lostowice,54.31911,18.5918006,,
mzn2046410229,morizon,https://www.morizon.pl/oferta/sprzedaz-mieszkanie-gdansk-srodmiescie-walowa-28m2-mzn2046410229,Mieszkanie na sprzedaż - 28 m² - 1 pokój Śródmieście Gdańsk,618000.0,PLN,21563.0,28.66,4.0,Gdansk,Srodmiescie,Walowa,54.3569642,18.6607591,,
mzn2046435316,morizon,https://www.morizon.pl/oferta/sprzedaz-mieszkanie-gdansk-ujescisko-lostowice-cedrowa-72m2-mzn2046435316,Wolne Miasto: Bezpieczny Azyl. Słoneczne/Kameralne/Winda/Garaż/Balkon,871000.0,PLN,11994.0,72.62,3.0,Gdansk,Ujescisko,Lostowice,54.3119715,18.5930729,,
mzn2046269464,morizon,https://www.morizon.pl/oferta/sprzedaz-mieszkanie-gdansk-orunia-gorna-gdansk-poludnie-niepolomicka-39m2-mzn2046269464,Przytulne mieszkanie 2-pok. Szybkie wydanie,515000.0,PLN,13205.0,39.0,2.0,Gdansk,Orunia,Gorna,54.347549,18.641673,,
mzn2046290876,morizon,https://www.morizon.pl/oferta/sprzedaz-mieszkanie-gdansk-wrzeszcz-aleja-gen-jozefa-hallera-64m2-mzn2046290876,"3 pokoje, taras, ogródek, garaż - tylko u nas",850000.0,PLN,13277.0,64.02,3.0,Gdansk,Wrzeszcz,Aleja,54.391633,18.5996092,,
mzn2046426468,morizon,https://www.morizon.pl/oferta/sprzedaz-mieszkanie-gdansk-zaspa-hynka-67m2-mzn2046426468,Nowoczesny apartament z widokiem na miasto i 2 msc. w hali garażowej,1325000.0,PLN,19776.0,67.0,3.0,Gdansk,Zaspa,Hynka,54.39410087,18.598051075,,
mzn2046426590,morizon,https://www.morizon.pl/oferta/sprzedaz-mieszkanie-gdansk-zaspa-franciszka-hynka-67m2-mzn2046426590,Nowoczesny apartament z widokiem na miasto i 2 msc. w hali garażowej,1550000.0,PLN,23134.0,67.0,3.0,Gdansk,Zaspa,Franciszka,54.3444287,18.5981097,,
mzn2046245184,morizon,https://www.morizon.pl/oferta/sprzedaz-mieszkanie-gdansk-brzezno-gdanska-47m2-mzn2046245184,2 pokoje Invest Komfort Gdańska | 5 minut od plaży,999000.0,PLN,21121.0,47.3,2.0,Gdansk,Brzezno,Gdanska,54.3508058,18.6510409,,
mzn2046266711,morizon,https://www.morizon.pl/oferta/sprzedaz-mieszkanie-gdansk-chelm-wladyslawa-cieszynskiego-63m2-mzn2046266711,3-pokoje-Gdańsk Chełm-Tramwaj-Balkon-Garaż-0% prowizji,579900.0,PLN,9147.0,63.4,3.0,Gdansk,Chelm,Wladyslawa,54.3854449,18.6092761,,
mzn2046279322,morizon,https://www.morizon.pl/oferta/sprzedaz-mieszkanie-gdansk-przymorze-poznanska-47m2-mzn2046279322,"2 pokoje + oddzielna kuchnia, ul. Poznańska",639000.0,PLN,13346.0,47.88,2.0,Gdansk,Przymorze,Poznanska,54.4136392,18.5803953,,
mzn2046263969,morizon,https://www.morizon.pl/oferta/sprzedaz-mieszkanie-pomorskie-gdansk-dlugie-ogrody-35m2-mzn2046263969,Apartament z balkonem w sercu Gdańska | Długie Ogrody,620000.0,PLN,17348.0,35.74,2.0,Pomorskie,Gdansk,Dlugie,53.9316758,17.4652916,,
mzn2046214307,morizon,https://www.morizon.pl/oferta/sprzedaz-mieszkanie-gdansk-letnica-starowiejska-67m2-mzn2046214307,Osiedle dla rodzin- blisko plaży-gotowe do wydania,1147000.0,PLN,16978.0,67.56,3.0,Gdansk,Letnica,Starowiejska,54.38985155,18.6498714,,
mzn2046179197,morizon,https://www.morizon.pl/oferta/sprzedaz-mieszkanie-gdansk-srodmiescie-pszenna-37m2-mzn2046179197,Dwupokojowe mieszkanie przy Starym Mieście,1081700.0,PLN,29000.0,37.3,2.0,Gdansk,Srodmiescie,Pszenna,54.35035155,18.6558259,,
mzn2046280117,morizon,https://www.morizon.pl/oferta/sprzedaz-mieszkanie-gdansk-jasien-gen-wladyslawa-andersa-71m2-mzn2046280117,Mieszkanie na sprzedaż - 71 m² - 4 pokoje Jasień Gdańsk,1182498.0,PLN,16550.0,71.45,4.0,Gdansk,Jasien,Gen,54.33519039,18.5497284,,
mzn2046280131,morizon,https://www.morizon.pl/oferta/sprzedaz-mieszkanie-gdansk-jasien-gen-wladyslawa-andersa-80m2-mzn2046280131,Mieszkanie na sprzedaż - 80 m² - 4 pokoje Jasień Gdańsk,1193792.0,PLN,14850.0,86.0,4.0,Gdansk,Jasien,Gen,54.33519039,18.5497284,,
mzn2046293356,morizon,https://www.morizon.pl/oferta/sprzedaz-mieszkanie-gdansk-przymorze-prezydenta-lecha-kaczynskiego-27m2-mzn2046293356,2 pokoje | Przymorze | blisko plaży,520000.0,PLN,19259.0,27.0,2.0,Gdansk,Przymorze,Prezydenta,54.40754,18.59646325,,
mzn2046158946,morizon,https://www.morizon.pl/oferta/sprzedaz-mieszkanie-gdansk-matarnia-elewow-62m2-mzn2046158946,3 pokojowe z tarasem i ogrodem w otulinie lasu,690000.0,PLN,10970.0,62.9,3.0,Gdansk,Matarnia,Elewow,54.379758,18.5054924,,
mzn2046242726,morizon,https://www.morizon.pl/oferta/sprzedaz-mieszkanie-gdansk-piecki-migowo-oranska-59m2-mzn2046242726,Trzypokojowy rozkładowy lokal mieszkalny na Morenie,739000.0,PLN,12379.0,59.7,3.0,Gdansk,Piecki,Migowo,54.356155,18.578460200000002,,
mzn2046169215,morizon,https://www.morizon.pl/oferta/sprzedaz-mieszkanie-gdansk-ujescisko-lostowice-srebrna-45m2-mzn2046169215,TBS Motława - 2 pokoje ul. Srebrna Gdańsk,275000.0,PLN,6111.0,45.0,2.0,Gdansk,Ujescisko,Lostowice,54.3119715,18.5930729,,
mzn2046278252,morizon,https://www.morizon.pl/oferta/sprzedaz-mieszkanie-gdansk-ujescisko-lostowice-piotrkowska-55m2-mzn2046278252,2 min. do tramwaju. Wyposażenie w cenie. Stan BDB,639000.0,PLN,11618.0,55.0,2.0,Gdansk,Ujescisko,Lostowice,54.31911,18.5918006,,
mzn2046210088,morizon,https://www.morizon.pl/oferta/sprzedaz-mieszkanie-gdansk-przymorze-leborska-47m2-mzn2046210088,"2 pokoje niska zabudowa blisko UG, OB i morza",899999.0,PLN,18868.0,47.7,2.0,Gdansk,Przymorze,Leborska,54.404394,18.5771798,,
mzn2046099180,morizon,https://www.morizon.pl/oferta/sprzedaz-mieszkanie-gdansk-srodmiescie-mostek-26m2-mzn2046099180,Apartamenty nad rzeką I Gdańsk I Śródmieście,519000.0,PLN,19272.0,26.93,4.0,Gdansk,Srodmiescie,Mostek,54.3511083,18.6740659,,
mzn2046237041,morizon,https://www.morizon.pl/oferta/sprzedaz-mieszkanie-gdansk-piecki-migowo-morenowe-wzgorze-82m2-mzn2046237041,4 pokoje z miejscem posotjowym i komórką,980000.0,PLN,11908.0,82.3,4.0,Gdansk,Piecki,Migowo,54.356155,18.578460200000002,,
mzn2045953776,morizon,https://www.morizon.pl/oferta/sprzedaz-mieszkanie-gdansk-piecki-migowo-88m2-mzn2045953776,"Przepiękna okolica, wyjątkowe mieszkanie 4 pokoje",1100000.0,PLN,12500.0,88.0,4.0,Gdansk,Piecki,Migowo,54.356155,18.578460200000002,,
mzn2046067875,morizon,https://www.morizon.pl/oferta/sprzedaz-mieszkanie-gdansk-wrzeszcz-jaskowa-dolina-27m2-mzn2046067875,Wyjątkowa kawalerka w samym centrum Wrzeszcza,465000.0,PLN,17222.0,27.0,2.0,Gdansk,Wrzeszcz,Jaskowa,54.3674802,18.5913181,,
mzn2044909023,morizon,https://www.morizon.pl/oferta/sprzedaz-mieszkanie-gdansk-orunia-gorna-gdansk-poludnie-czerska-35-88m2-mzn2044909023,Mieszkanie na sprzedaż - 88 m² - 4 pokoje Orunia Górna-Gdańsk Południe Gdańsk,356000.0,PLN,10263.0,34.69,4.0,Gdansk,Orunia,Gorna,54.347549,18.641673,,
mzn2044909037,morizon,https://www.morizon.pl/oferta/sprzedaz-mieszkanie-gdansk-orunia-gorna-gdansk-poludnie-czerska-35-53m2-mzn2044909037,Mieszkanie na sprzedaż - 53 m² - 3 pokoje Orunia Górna-Gdańsk Południe Gdańsk,356000.0,PLN,14105.0,25.24,3.0,Gdansk,Orunia,Gorna,54.347549,18.641673,,
mzn2045648728,morizon,https://www.morizon.pl/oferta/sprzedaz-mieszkanie-gdansk-srodmiescie-27m2-mzn2045648728,Neptun 15 min –top lokalizacja!Miejsce postojowe,305141.0,PLN,11231.0,27.17,2.0,Gdansk,Srodmiescie,,54.35035155,18.6558259,,
mzn2045878289,morizon,https://www.morizon.pl/oferta/sprzedaz-mieszkanie-gdansk-nowy-port-wyzwolenia-63m2-mzn2045878289,3 pokojowe mieszkanie blisko plaży,715000.0,PLN,11224.0,63.7,3.0,Gdansk,Nowy,Port,54.4012178,18.662687249999998,,
mzn2046280071,morizon,https://www.morizon.pl/oferta/sprzedaz-mieszkanie-gdansk-jasien-gen-wladyslawa-andersa-51m2-mzn2046280071,Mieszkanie na sprzedaż - 51 m² - 2 pokoje Jasień Gdańsk,709536.0,PLN,13850.0,51.23,2.0,Gdansk,Jasien,Gen,54.33519039,18.5497284,,
mzn2046280105,morizon,https://www.morizon.pl/oferta/sprzedaz-mieszkanie-gdansk-jasien-gen-wladyslawa-andersa-71m2-mzn2046280105,Mieszkanie na sprzedaż - 71 m² - 4 pokoje Jasień Gdańsk,1113069.0,PLN,15550.0,75.0,4.0,Gdansk,Jasien,Gen,54.33519039,18.5497284,,
mzn2044009864,morizon,https://www.morizon.pl/oferta/sprzedaz-mieszkanie-gdansk-orunia-gorna-gdansk-poludnie-76m2-mzn2044009864,Gdańsk Sprzedam 3 pok Apartament 2 poziomowy 76m2,2780000.0,PLN,10263.0,270.88,3.0,Gdansk,Orunia,Gorna,54.347549,18.641673,,
mzn2043096373,morizon,https://www.morizon.pl/oferta/sprzedaz-mieszkanie-gdansk-ujescisko-lostowice-sliwkowa-71m2-mzn2043096373,Mieszkanie na sprzedaż - 71 m² - 4 pokoje Ujeścisko-Łostowice Gdańsk,799000.0,PLN,11133.0,75.0,4.0,Gdansk,Ujescisko,Lostowice,54.3119715,18.5930729,,
mzn2045877680,morizon,https://www.morizon.pl/oferta/sprzedaz-mieszkanie-gdansk-srodmiescie-lakowa-55m2-mzn2045877680,Nowoczesny apartament w Śródmieściu Gdańska,1060000.0,PLN,19037.0,55.68,2.0,Gdansk,Srodmiescie,Lakowa,54.3419532,18.6603855,,
mzn2045509646,morizon,https://www.morizon.pl/oferta/sprzedaz-mieszkanie-gdansk-oliwa-polanki-140m2-mzn2045509646,Eleganckie mieszkanie w sercu Oliwy,1799000.0,PLN,12850.0,140.0,3.0,Gdansk,Oliwa,Polanki,54.3925875,18.5687859,,
mzn2045376633,morizon,https://www.morizon.pl/oferta/sprzedaz-mieszkanie-gdansk-srodmiescie-stara-stocznia-95m2-mzn2045376633,Mieszkanie z balkonem w inwestycji Brabank,2070773.0,PLN,21638.0,95.7,4.0,Gdansk,Srodmiescie,Stara,54.3191523,18.6243062,,
mzn2045376632,morizon,https://www.morizon.pl/oferta/sprzedaz-mieszkanie-gdansk-srodmiescie-stara-stocznia-95m2-mzn2045376632,Mieszkanie z balkonem w inwestycji Brabank,2070773.0,PLN,21638.0,95.7,4.0,Gdansk,Srodmiescie,Stara,54.3191523,18.6243062,,
mzn2045354672,morizon,https://www.morizon.pl/oferta/sprzedaz-mieszkanie-gdansk-wrzeszcz-129m2-mzn2045354672,Apartament na najwyższym piętrze niedaleko morza,2631643.0,PLN,20268.0,129.84,3.0,Gdansk,Wrzeszcz,,54.379389950000004,18.60313655,,
mzn2044710838,morizon,https://www.morizon.pl/oferta/sprzedaz-mieszkanie-gdansk-srodmiescie-szafarnia-116m2-mzn2044710838,Apartament z tarasem i widokiem na Marinę,4300000.0,PLN,37069.0,116.0,4.0,Gdansk,Srodmiescie,Szafarnia,54.35035155,18.6558259,,
mzn2045841831,morizon,https://www.morizon.pl/oferta/sprzedaz-mieszkanie-gdansk-oliwa-aleja-grunwaldzka-38m2-mzn2045841831,Świetna Lokalizacja | Blisko Skm i tramwaju | AWF,584000.0,PLN,15368.0,38.0,2.0,Gdansk,Oliwa,Aleja,54.391633,18.5996092,,
mzn2045732927,morizon,https://www.morizon.pl/oferta/sprzedaz-mieszkanie-gdansk-przymorze-pomorska-63m2-mzn2045732927,"2 pokoje, Żabianka, możliwy powrót do 3 pokoi",795000.0,PLN,12619.0,63.0,2.0,Gdansk,Przymorze,Pomorska,54.4161379,18.5730537,,
mzn2045850227,morizon,https://www.morizon.pl/oferta/sprzedaz-mieszkanie-gdansk-srodmiescie-ks-jerzego-popieluszki-59m2-mzn2045850227,Apartament w legendarnej lokalizacji Gdańsk,1240000.0,PLN,20935.0,59.23,3.0,Gdansk,Srodmiescie,Ks,54.35035155,18.6558259,,
mzn2044489905,morizon,https://www.morizon.pl/oferta/sprzedaz-mieszkanie-gdansk-przymorze-obroncow-wybrzeza-155m2-mzn2044489905,Wygodny apartament o walorach domu w centrum miast,3720000.0,PLN,24000.0,155.0,2.0,Gdansk,Przymorze,Obroncow,54.4067012,18.6669686,,
mzn2045795543,morizon,https://www.morizon.pl/oferta/sprzedaz-mieszkanie-gdansk-stogi-tamka-34m2-mzn2045795543,Mieszkanie nad morzem,369000.0,PLN,10634.0,34.7,2.0,Gdansk,Stogi,Tamka,54.3591903,18.7145091,,
mzn2044396239,morizon,https://www.morizon.pl/oferta/sprzedaz-mieszkanie-gdansk-siedlce-kartuska-68m2-mzn2044396239,Najtańsze mieszkanie w Gdańsku! | Do negocjacji,499000.0,PLN,7331.0,68.07,3.0,Gdansk,Siedlce,Kartuska,54.3488205,18.5305699,,
mzn2046294548,morizon,https://www.morizon.pl/oferta/sprzedaz-mieszkanie-gdansk-wrzeszcz-deotymy-32m2-mzn2046294548,Mieszkanie w świetnej lokalizacji,610000.0,PLN,18769.0,32.5,2.0,Gdansk,Wrzeszcz,Deotymy,54.38473064,18.615345955,,
mzn2045696614,morizon,https://www.morizon.pl/oferta/sprzedaz-mieszkanie-gdansk-siedlce-sloneczna-dolina-52m2-mzn2045696614,Komfortowe dwa pokoje w świetnej lokalizacji,619000.0,PLN,11904.0,52.0,2.0,Gdansk,Siedlce,Sloneczna,54.4068118,18.5522345,,
mzn2045128544,morizon,https://www.morizon.pl/oferta/sprzedaz-mieszkanie-gdansk-srodmiescie-sienna-grobla-89m2-mzn2045128544,Apartament od strony Motławy do własnej aranżacji,1800000.0,PLN,20100.0,89.55,4.0,Gdansk,Srodmiescie,Sienna,54.3584497,18.6931218,,
mzn2045819796,morizon,https://www.morizon.pl/oferta/sprzedaz-mieszkanie-gdansk-oliwa-aleja-grunwaldzka-58m2-mzn2045819796,Oliwa | 3 słoneczne pokoje | Idealna lokalizacja,649000.0,PLN,11151.0,58.2,3.0,Gdansk,Oliwa,Aleja,54.391633,18.5996092,,
mzn2045876301,morizon,https://www.morizon.pl/oferta/sprzedaz-mieszkanie-gdansk-wrzeszcz-boleslawa-lesmiana-32m2-mzn2045876301,USTAWNE MIESZKANIE GARNIZON,775000.0,PLN,23642.0,32.78,2.0,Gdansk,Wrzeszcz,Boleslawa,54.3820923,18.5889794,,
mzn2045626494,morizon,https://www.morizon.pl/oferta/sprzedaz-mieszkanie-gdansk-aniolki-focha-140m2-mzn2045626494,Atrakcyjne mieszkanie ul. Focha 5 pokoi,1350000.0,PLN,9643.0,140.0,4.0,Gdansk,Aniolki,Focha,54.3628316,18.62783425,,
mzn2045841751,morizon,https://www.morizon.pl/oferta/sprzedaz-mieszkanie-gdansk-piecki-migowo-morenowe-wzgorze-36m2-mzn2045841751,Kawalerka z garderobą / Balkon / 0% PROWIZJI,510000.0,PLN,13859.0,36.8,2.0,Gdansk,Piecki,Migowo,54.356155,18.578460200000002,,
mzn2045368834,morizon,https://www.morizon.pl/oferta/sprzedaz-mieszkanie-gdansk-aniolki-mariana-smoluchowskiego-55m2-mzn2045368834,"Nowa cena, doskonała inwestycja 3 pokoje Aniołki",899000.0,PLN,16345.0,55.0,3.0,Gdansk,Aniolki,Mariana,54.3359456,18.6655092,,
mzn2046131853,morizon,https://www.morizon.pl/oferta/sprzedaz-mieszkanie-gdansk-chelm-ludwika-hirszfelda-27m2-mzn2046131853,gotowe do zamieszkania,348000.0,PLN,12889.0,27.0,2.0,Gdansk,Chelm,Ludwika,54.3572678,18.7358337,,
mzn2045892401,morizon,https://www.morizon.pl/oferta/sprzedaz-mieszkanie-gdansk-srodmiescie-jacka-malczewskiego-55m2-mzn2045892401,Apartament Taras Ogródek Prestiżowe Młyny Gdańskie,885000.0,PLN,15943.0,55.51,2.0,Gdansk,Srodmiescie,Jacka,54.3478448,18.6161241,,
mzn2045705271,morizon,https://www.morizon.pl/oferta/sprzedaz-mieszkanie-gdansk-brzezno-nadmorski-dwor-97m2-mzn2045705271,Nadmorski Dwór- Wyjątkowa lokalizacja,2620000.0,PLN,26784.0,97.82,4.0,Gdansk,Brzezno,Nadmorski,54.4069408,18.620666,,
mzn2046264474,morizon,https://www.morizon.pl/oferta/sprzedaz-mieszkanie-gdansk-przymorze-kolobrzeska-65m2-mzn2046264474,Trzy pokoje Gdańsk Przymorze blisko plaży,830000.0,PLN,12769.0,65.0,3.0,Gdansk,Przymorze,Kolobrzeska,54.400764,18.5742856,,
mzn2045587681,morizon,https://www.morizon.pl/oferta/sprzedaz-mieszkanie-gdansk-przymorze-obroncow-wybrzeza-30m2-mzn2045587681,2 pokoje gotowe do wprowadzenia blisko morza,469000.0,PLN,15633.0,30.0,2.0,Gdansk,Przymorze,Obroncow,54.4067012,18.6669686,,
mzn2046267329,morizon,https://www.morizon.pl/oferta/sprzedaz-mieszkanie-gdansk-przymorze-piastowska-46m2-mzn2046267329,Gdańsk Przymorze Dwa pokoje Blisko morza,599000.0,PLN,13022.0,46.0,2.0,Gdansk,Przymorze,Piastowska,54.416023,18.5858833,,
mzn2045876699,morizon,https://www.morizon.pl/oferta/sprzedaz-mieszkanie-gdansk-mlyniska-ks-jerzego-popieluszki-76m2-mzn2045876699,Wyjątkowy Apartament Z Przeszkloną Loggią Żurawie,1850000.0,PLN,24342.0,76.0,3.0,Gdansk,Mlyniska,Ks,54.3482907,18.6540233,,
mzn2046061716,morizon,https://www.morizon.pl/oferta/sprzedaz-mieszkanie-gdansk-srodmiescie-stara-stocznia-92m2-mzn2046061716,Brabank -prestiżowa inwestycja w sercu Gdańska,2700000.0,PLN,29348.0,92.0,4.0,Gdansk,Srodmiescie,Stara,54.3191523,18.6243062,,
mzn2046146082,morizon,https://www.morizon.pl/oferta/sprzedaz-mieszkanie-gdansk-chelm-odrzanska-57m2-mzn2046146082,Mieszkanie 3 pokojowe z ogródkiem 200m2,2650000.0,PLN,11246.0,235.64,3.0,Gdansk,Chelm,Odrzanska,54.3434868,18.6267216,,
mzn2045944060,morizon,https://www.morizon.pl/oferta/sprzedaz-mieszkanie-gdansk-oliwa-artura-grottgera-128m2-mzn2045944060,Wyjątkowy Apartament Gdańsk Oliwa,3254477.0,PLN,25380.0,128.23,4.0,Gdansk,Oliwa,Artura,54.4086874,18.5599567,,
mzn2045394190,morizon,https://www.morizon.pl/oferta/sprzedaz-mieszkanie-gdansk-srodmiescie-lakowa-92m2-mzn2045394190,Apartament z dwoma balkonami tuż obok Starówki,2012949.0,PLN,21856.0,92.1,4.0,Gdansk,Srodmiescie,Lakowa,54.3419532,18.6603855,,
mzn2036537311,morizon,https://www.morizon.pl/oferta/sprzedaz-mieszkanie-gdansk-srodmiescie-chmielna-98m2-mzn2036537311,Apartament 3 pokojowy w Deo Plazie /Piękny Widok,3456950.0,PLN,35000.0,98.77,3.0,Gdansk,Srodmiescie,Chmielna,54.35035155,18.6558259,,
mzn2045912919,morizon,https://www.morizon.pl/oferta/sprzedaz-mieszkanie-gdansk-piecki-migowo-morenowe-wzgorze-72m2-mzn2045912919,Przestronne 3-pokojowe mieszkanie z tarasem,849000.0,PLN,11662.0,72.8,3.0,Gdansk,Piecki,Migowo,54.3519218,18.576940399999998,,
mzn2046280096,morizon,https://www.morizon.pl/oferta/sprzedaz-mieszkanie-gdansk-jasien-gen-wladyslawa-andersa-60m2-mzn2046280096,Mieszkanie na sprzedaż - 60 m² - 3 pokoje Jasień Gdańsk,939065.0,PLN,15550.0,65.0,3.0,Gdansk,Jasien,Gen,54.33519039,18.5497284,,
mzn2045768863,morizon,https://www.morizon.pl/oferta/sprzedaz-mieszkanie-gdansk-przymorze-jelitkowski-dwor-55m2-mzn2045768863,Apartament na sprzedaż,979000.0,PLN,17736.0,55.2,3.0,Gdansk,Przymorze,Jelitkowski,54.4258724,18.5951116,,
mzn2045868464,morizon,https://www.morizon.pl/oferta/sprzedaz-mieszkanie-gdansk-srodmiescie-mariana-seredynskiego-107m2-mzn2045868464,PEWNA INWESTYCJA W SERCU GDAŃSKA | ŚRÓDMIEŚCIE,1240000.0,PLN,11503.0,107.8,4.0,Gdansk,Srodmiescie,Mariana,54.3359456,18.6655092,,
mzn2045844000,morizon,https://www.morizon.pl/oferta/sprzedaz-mieszkanie-gdansk-srodmiescie-lakowa-120m2-mzn2045844000,Komfortowe 120 m2 w Gdańskiej kamienicy,2350000.0,PLN,19567.0,120.1,4.0,Gdansk,Srodmiescie,Lakowa,54.3419532,18.6603855,,
mzn2045853724,morizon,https://www.morizon.pl/oferta/sprzedaz-mieszkanie-gdansk-kokoszki-storczykowa-55m2-mzn2045853724,"Mieszkanie dwupokojowe Gdańsk, Storczykowa",549000.0,PLN,9856.0,55.7,2.0,Gdansk,Kokoszki,Storczykowa,54.3900384,18.4413414,,
mzn2045857567,morizon,https://www.morizon.pl/oferta/sprzedaz-mieszkanie-gdansk-srodmiescie-stepkarska-33m2-mzn2045857567,Mieszkanie z ogródkiem przy samej Motławie,669000.0,PLN,20163.0,33.18,4.0,Gdansk,Srodmiescie,Stepkarska,54.3571396,18.6632596,,
mzn2045359531,morizon,https://www.morizon.pl/oferta/sprzedaz-mieszkanie-gdansk-orunia-sw-wojciech-lipce-stefana-ramulta-105m2-mzn2045359531,Dwa mieszkania w cenie jednego w spokojnej okolicy,999000.0,PLN,9514.0,105.0,4.0,Gdansk,Orunia,Sw,54.3732816,18.6006758,,
mzn2045061582,morizon,https://www.morizon.pl/oferta/sprzedaz-mieszkanie-gdansk-srodmiescie-chlebnicka-54m2-mzn2045061582,"2 pokoje po remoncie, Chlebnicka, 1 piętro",980000.0,PLN,17982.0,54.5,2.0,Gdansk,Srodmiescie,Chlebnicka,54.35035155,18.6558259,,
mzn2045898215,morizon,https://www.morizon.pl/oferta/sprzedaz-mieszkanie-gdansk-wrzeszcz-romana-dmowskiego-84m2-mzn2045898215,Mieszkanie 4-pok. Gdańsk - Wrzeszcz Górny,1100000.0,PLN,13095.0,85.0,4.0,Gdansk,Wrzeszcz,Romana,54.3598414,18.5757203,,
mzn2045888756,morizon,https://www.morizon.pl/oferta/sprzedaz-mieszkanie-gdansk-wyspa-sobieszewska-78m2-mzn2045888756,Topowy | Ostatni apartament | Ogród 264 m2,22596000.0,PLN,33159.0,681.44,3.0,Gdansk,Wyspa,Sobieszewska,54.3495744,18.8163304,,
mzn2045376126,morizon,https://www.morizon.pl/oferta/sprzedaz-mieszkanie-gdansk-ujescisko-lostowice-ofiar-grudnia-70-32m2-mzn2045376126,kawalerka gotowa do wprowadzenia | wysoki standard,519000.0,PLN,15838.0,32.77,2.0,Gdansk,Ujescisko,Lostowice,54.3119715,18.5930729,,
mzn2044722576,morizon,https://www.morizon.pl/oferta/sprzedaz-mieszkanie-gdansk-srodmiescie-walowa-22m2-mzn2044722576,Mieszkanie w samym sercu Gdańska,519000.0,PLN,23108.0,22.46,2.0,Gdansk,Srodmiescie,Walowa,54.3569642,18.6607591,,
mzn2045888388,morizon,https://www.morizon.pl/oferta/sprzedaz-mieszkanie-gdansk-wyspa-sobieszewska-turystyczna-63m2-mzn2045888388,Dwupoziomowy | Antresola | Ogród i taras | Basen,1040650.0,PLN,16314.0,63.79,2.0,Gdansk,Wyspa,Sobieszewska,54.3495744,18.8163304,,
mzn2045375599,morizon,https://www.morizon.pl/oferta/sprzedaz-mieszkanie-gdansk-srodmiescie-angielska-grobla-45m2-mzn2045375599,Elegancki apartament! 200m do Motławy! Od zaraz,1099000.0,PLN,24390.0,45.06,2.0,Gdansk,Srodmiescie,Angielska,54.35035155,18.6558259,,
mzn2044365339,morizon,https://www.morizon.pl/oferta/sprzedaz-mieszkanie-gdansk-srodmiescie-sw-ducha-55m2-mzn2044365339,Gdańsk | Inwestycja | Winda Nowe budownictwo,1199000.0,PLN,21643.0,55.4,3.0,Gdansk,Srodmiescie,Sw,54.3732816,18.6006758,,
mzn2045943818,morizon,https://www.morizon.pl/oferta/sprzedaz-mieszkanie-gdansk-wrzeszcz-gen-jozefa-hallera-48m2-mzn2045943818,Apartament 2 pokoje | blisko plaży | blisko centrum,838737.0,PLN,17322.0,48.42,2.0,Gdansk,Wrzeszcz,Gen,54.379389950000004,18.60313655,,
mzn2045840555,morizon,https://www.morizon.pl/oferta/sprzedaz-mieszkanie-gdansk-zaspa-jana-pawla-ii-49m2-mzn2045840555,Mieszkanie - Gdańsk Zaspa,850000.0,PLN,17347.0,49.0,2.0,Gdansk,Zaspa,Jana,54.39645835,18.605411150000002,,
mzn2044960651,morizon,https://www.morizon.pl/oferta/sprzedaz-mieszkanie-gdansk-srodmiescie-chmielna-56m2-mzn2044960651,Wyspa Spichrzów apartament,1785015.0,PLN,31621.0,56.45,2.0,Gdansk,Srodmiescie,Chmielna,54.35035155,18.6558259,,
mzn2044960650,morizon,https://www.morizon.pl/oferta/sprzedaz-mieszkanie-gdansk-srodmiescie-chmielna-66m2-mzn2044960650,Wyspa Spichrzów apartament,1943515.0,PLN,29034.0,66.94,3.0,Gdansk,Srodmiescie,Chmielna,54.35035155,18.6558259,,
mzn2045856484,morizon,https://www.morizon.pl/oferta/sprzedaz-mieszkanie-gdansk-ujescisko-lostowice-53m2-mzn2045856484,53 M2 Gd. Ujeścisko 3 pokoje - kom. lok. 8 m2,2559000.0,PLN,10547.0,242.63,3.0,Gdansk,Ujescisko,Lostowice,54.31911,18.5918006,,
mzn2045509718,morizon,https://www.morizon.pl/oferta/sprzedaz-mieszkanie-gdansk-orunia-sw-wojciech-lipce-koralowa-52m2-mzn2045509718,"3 pokoje, blisko Śródmieścia, komunikacja",649000.0,PLN,12481.0,52.0,3.0,Gdansk,Orunia,Sw,54.3732816,18.6006758,,
mzn2045072664,morizon,https://www.morizon.pl/oferta/sprzedaz-mieszkanie-gdansk-zabianka-wejhera-jelitkowo-tysiaclecia-piastowska-74m2-mzn2045072664,Przestrzeń | Bliskość plaży | Wysoki standard,2290000.0,PLN,30738.0,74.5,2.0,Gdansk,Zabianka,Wejhera,54.420412,18.5831153,,
mzn2044960648,morizon,https://www.morizon.pl/oferta/sprzedaz-mieszkanie-gdansk-srodmiescie-chmielna-77m2-mzn2044960648,Dwupoziomowy Apartament Granaria Wyspa Spichrzów,2030800.0,PLN,26063.0,77.92,3.0,Gdansk,Srodmiescie,Chmielna,54.35035155,18.6558259,,
mzn2043138041,morizon,https://www.morizon.pl/oferta/sprzedaz-mieszkanie-gdansk-zabianka-wejhera-jelitkowo-tysiaclecia-bursztynowa-90m2-mzn2043138041,"Apartament 300 m od morza, willowe otoczenie",3500000.0,PLN,38837.0,90.12,4.0,Gdansk,Zabianka,Wejhera,54.420412,18.5831153,,
mzn2044562742,morizon,https://www.morizon.pl/oferta/sprzedaz-mieszkanie-gdansk-oliwa-artura-grottgera-50m2-mzn2044562742,Apartament Gdańsk Oliwa | 2 pokoje | ogródek,1259961.0,PLN,25164.0,50.07,2.0,Gdansk,Oliwa,Artura,54.4086874,18.5599567,,
mzn2045107499,morizon,https://www.morizon.pl/oferta/sprzedaz-mieszkanie-gdansk-osowa-malinowa-70m2-mzn2045107499,Duże mieszkanie dla rodziny w pięknej okolicy,704500.0,PLN,10000.0,70.45,4.0,Gdansk,Osowa,Malinowa,54.353391,18.5159859,,
mzn2044562749,morizon,https://www.morizon.pl/oferta/sprzedaz-mieszkanie-gdansk-wrzeszcz-gen-jozefa-hallera-125m2-mzn2044562749,Apartament 5 pokojowy z pięknym widokiem,2635238.0,PLN,21060.0,130.0,4.0,Gdansk,Wrzeszcz,Gen,54.379389950000004,18.60313655,,
mzn2045856486,morizon,https://www.morizon.pl/oferta/sprzedaz-mieszkanie-gdansk-wrzeszcz-magellana-52m2-mzn2045856486,2 kawalerki po 26 m2 każda Gd. Wrzeszcz 2 balkony,718000.0,PLN,13808.0,52.0,2.0,Gdansk,Wrzeszcz,Magellana,54.3642717,18.5820312,,
mzn2045550333,morizon,https://www.morizon.pl/oferta/sprzedaz-mieszkanie-gdansk-jasien-wojciecha-kiedrowskiego-63m2-mzn2045550333,Wyjątkowe 3 pokoje | dobra lokalizacja,760374.0,PLN,11920.0,63.79,3.0,Gdansk,Jasien,Wojciecha,54.2873501,18.6376045,,
mzn2044442624,morizon,https://www.morizon.pl/oferta/sprzedaz-mieszkanie-gdansk-srodmiescie-walowa-31m2-mzn2044442624,Apartament w sercu Gdańska,550000.0,PLN,17674.0,31.12,2.0,Gdansk,Srodmiescie,Walowa,54.351680834999996,18.65429468,,
mzn2045462241,morizon,https://www.morizon.pl/oferta/sprzedaz-mieszkanie-gdansk-ujescisko-lostowice-kartuska-55m2-mzn2045462241,Mieszkanie na sprzedaż - 55 m² - 3 pokoje Ujeścisko-Łostowice Gdańsk,741997.0,PLN,13326.0,59.0,3.0,Gdansk,Ujescisko,Lostowice,54.3119715,18.5930729,,
mzn2045553744,morizon,https://www.morizon.pl/oferta/sprzedaz-mieszkanie-gdansk-zaspa-leszczynskich-2-32m2-mzn2045553744,Mieszkanie na sprzedaż - 32 m² - 1 pokój Zaspa Gdańsk,651224.0,PLN,20300.0,34.0,2.0,Gdansk,Zaspa,Leszczynskich,54.39645835,18.605411150000002,,
mzn2045553708,morizon,https://www.morizon.pl/oferta/sprzedaz-mieszkanie-gdansk-zaspa-leszczynskich-2-100m2-mzn2045553708,Mieszkanie na sprzedaż - 100 m² - 4 pokoje Zaspa Gdańsk,2519250.0,PLN,25000.0,100.77,4.0,Gdansk,Zaspa,Leszczynskich,54.39645835,18.605411150000002,,
mzn2046264473,morizon,https://www.morizon.pl/oferta/sprzedaz-mieszkanie-gdansk-osowa-kwiatkowskiego-eugeniusza-75m2-mzn2046264473,"Gdańsk Osowa, 4 pokoje, taras, ogródek, garaż",749000.0,PLN,9907.0,75.6,4.0,Gdansk,Osowa,Kwiatkowskiego,54.4047665,18.6443983,,
mzn2045443395,morizon,https://www.morizon.pl/oferta/sprzedaz-mieszkanie-gdansk-srodmiescie-chmielna-80m2-mzn2045443395,Apartament Wyspa Spichrzów Gdańsk,2173500.0,PLN,27000.0,80.5,3.0,Gdansk,Srodmiescie,Chmielna,54.35035155,18.6558259,,
mzn2046421688,morizon,https://www.morizon.pl/oferta/sprzedaz-mieszkanie-gdansk-letnica-starowiejska-38m2-mzn2046421688,"Mieszkanie z ogródkiem, 20 min spacerem od plaży",699000.0,PLN,18294.0,38.21,2.0,Gdansk,Letnica,Starowiejska,54.38985155,18.6498714,,
mzn2046512065,morizon,https://www.morizon.pl/oferta/sprzedaz-mieszkanie-gdansk-wrzeszcz-55m2-mzn2046512065,55 m2 Gd. Wrzeszcz - 3 pokoje - ekspozycja południowo-zachodnia,859000.0,PLN,15618.0,55.0,3.0,Gdansk,Wrzeszcz,,54.37535543,18.60946655,,
mzn2046096345,morizon,https://www.morizon.pl/oferta/sprzedaz-mieszkanie-gdansk-brzezno-ignacego-krasickiego-52m2-mzn2046096345,Mieszkanie Invest Komfort - tuż przy plaży,1399000.0,PLN,26780.0,52.24,2.0,Gdansk,Brzezno,Ignacego,54.3338876,18.6341855,,
mzn2044499412,morizon,https://www.morizon.pl/oferta/sprzedaz-mieszkanie-gdansk-srodmiescie-sienna-grobla-77m2-mzn2044499412,ATRAKCYJNY APARTAMENT na 3 PIĘTRZE Z TARASEM - IN,1600000.0,PLN,20744.0,77.13,3.0,Gdansk,Srodmiescie,Sienna,54.3584497,18.6931218,,
mzn2045829218,morizon,https://www.morizon.pl/oferta/sprzedaz-mieszkanie-gdansk-brzezno-ignacego-krasickiego-52m2-mzn2045829218,Mieszkanie 3 pokojowe z 2 łazienkami przy plaży,1450000.0,PLN,27772.0,52.21,3.0,Gdansk,Brzezno,Ignacego,54.3338876,18.6341855,,
mzn2045094247,morizon,https://www.morizon.pl/oferta/sprzedaz-mieszkanie-gdansk-srodmiescie-sw-barbary-47m2-mzn2045094247,Mieszkanie w sercu Gdańska,1180000.0,PLN,24947.0,47.3,2.0,Gdansk,Srodmiescie,Sw,54.3732816,18.6006758,,
mzn2046282346,morizon,https://www.morizon.pl/oferta/sprzedaz-mieszkanie-gdansk-oliwa-karwienska-47m2-mzn2046282346,Apartament w otoczeniu zieleni | Gdańsk Oliwa | Wykończony pod klucz,1325880.0,PLN,28008.0,47.34,2.0,Gdansk,Oliwa,Karwienska,54.4113271,18.546889,,
mzn2045127584,morizon,https://www.morizon.pl/oferta/sprzedaz-mieszkanie-gdansk-srodmiescie-sw-barbary-33m2-mzn2045127584,Mieszkanie inwestycyjne - gotowe do wynajmu,775000.0,PLN,23428.0,33.08,2.0,Gdansk,Srodmiescie,Sw,54.3732816,18.6006758,,
mzn2046282051,morizon,https://www.morizon.pl/oferta/sprzedaz-mieszkanie-gdansk-oliwa-karwienska-68m2-mzn2046282051,Apartament w otoczeniu zieleni | Gdańsk Oliwa | Gotowy do odbioru,1280389.0,PLN,18700.0,68.47,3.0,Gdansk,Oliwa,Karwienska,54.4113271,18.546889,,
mzn2046282739,morizon,https://www.morizon.pl/oferta/sprzedaz-mieszkanie-gdansk-srodmiescie-wiosny-ludow-32m2-mzn2046282739,Apartament nad Motławą,720000.0,PLN,22127.0,32.54,2.0,Gdansk,Srodmiescie,Wiosny,54.3572917,18.6654718,,
mzn2046282777,morizon,https://www.morizon.pl/oferta/sprzedaz-mieszkanie-gdansk-srodmiescie-stepkarska-40m2-mzn2046282777,Apartament 2 pokoje nad Motławą,790272.0,PLN,19600.0,40.32,2.0,Gdansk,Srodmiescie,Stepkarska,54.3571396,18.6632596,,
mzn2046282614,morizon,https://www.morizon.pl/oferta/sprzedaz-mieszkanie-gdansk-brzezno-kobieli-50m2-mzn2046282614,Apartament 2 pokoje | Gdańsk Brzeźno,919105.0,PLN,18349.0,50.09,2.0,Gdansk,Brzezno,Kobieli,54.4045806,18.63265165,,
mzn2046282798,morizon,https://www.morizon.pl/oferta/sprzedaz-mieszkanie-gdansk-srodmiescie-wiosny-ludow-68m2-mzn2046282798,Apartament nad Motławą | 3 pokoje,1295028.0,PLN,18900.0,68.52,3.0,Gdansk,Srodmiescie,Wiosny,54.3572917,18.6654718,,
mzn2046282692,morizon,https://www.morizon.pl/oferta/sprzedaz-mieszkanie-gdansk-brzezno-kobieli-87m2-mzn2046282692,Apartament 4 pokoje | Gdańsk Brzeźno | Blisko Morza,1492090.0,PLN,17000.0,87.77,4.0,Gdansk,Brzezno,Kobieli,54.4045806,18.63265165,,
mzn2046282885,morizon,https://www.morizon.pl/oferta/sprzedaz-mieszkanie-gdansk-zaspa-leszczynskich-54m2-mzn2046282885,Apartament 3 pokoje | Gdańsk Zaspa / Wrzeszcz,1127984.0,PLN,20800.0,54.23,3.0,Gdansk,Zaspa,Leszczynskich,54.39645835,18.605411150000002,,
mzn2046282822,morizon,https://www.morizon.pl/oferta/sprzedaz-mieszkanie-gdansk-srodmiescie-sienna-grobla-36m2-mzn2046282822,Apartament nad Motławą | 2 pokoje,680985.0,PLN,18500.0,36.81,2.0,Gdansk,Srodmiescie,Sienna,54.3584497,18.6931218,,
mzn2046282875,morizon,https://www.morizon.pl/oferta/sprzedaz-mieszkanie-gdansk-zaspa-leszczynskich-38m2-mzn2046282875,Apartament 2 pokoje | Gdańsk Zaspa / Wrzeszcz,761175.0,PLN,19900.0,38.25,2.0,Gdansk,Zaspa,Leszczynskich,54.39645835,18.605411150000002,,
mzn2046282845,morizon,https://www.morizon.pl/oferta/sprzedaz-mieszkanie-gdansk-srodmiescie-sienna-grobla-56m2-mzn2046282845,Apartament nad Motławą | 3 pokoje,981925.0,PLN,17500.0,56.11,3.0,Gdansk,Srodmiescie,Sienna,54.3584497,18.6931218,,
mzn2044845869,morizon,https://www.morizon.pl/oferta/sprzedaz-mieszkanie-pomorskie-gdansk-turystyczna-45m2-mzn2044845869,Apartament inwestycyjny,988920.0,PLN,21508.0,45.98,2.0,Pomorskie,Gdansk,Turystyczna,54.3426148,18.8519421,,
mzn2046455727,morizon,https://www.morizon.pl/oferta/sprzedaz-mieszkanie-gdansk-srodmiescie-stara-stocznia-49m2-mzn2046455727,Nowy apartament Gdańsk Stare Miasto widok na Motławe,1380000.0,PLN,28163.0,49.0,2.0,Gdansk,Srodmiescie,Stara,54.3191523,18.6243062,,
mzn2046462697,morizon,https://www.morizon.pl/oferta/sprzedaz-mieszkanie-gdansk-suchanino-paganiniego-57m2-mzn2046462697,3 pokoje pod wynajem/dla rodziny*Blisko Centrum*Parking*Winda,640000.0,PLN,11228.0,57.0,3.0,Gdansk,Suchanino,Paganiniego,54.35465458,18.6090374,,
mzn2046448694,morizon,https://www.morizon.pl/oferta/sprzedaz-mieszkanie-gdansk-wrzeszcz-slowackiego-42m2-mzn2046448694,Sprzedam mieszkanie.Wrzeszcz Górny Ul.Słowackiego,659000.0,PLN,15690.0,44.0,2.0,Gdansk,Wrzeszcz,Slowackiego,54.3800268,18.5897162,,
mzn2046283083,morizon,https://www.morizon.pl/oferta/sprzedaz-mieszkanie-gdansk-ujescisko-lostowice-warszawska-70m2-mzn2046283083,3 pokojowe 70m2 mieszkanie na ul. Warszawskiej,849000.0,PLN,12129.0,70.0,3.0,Gdansk,Ujescisko,Lostowice,54.31911,18.5918006,,
mzn2046412622,morizon,https://www.morizon.pl/oferta/sprzedaz-mieszkanie-gdansk-chelm-bieganskiego-50m2-mzn2046412622,M2 na Gdańskim Chełmie,659000.0,PLN,13180.0,51.0,2.0,Gdansk,Chelm,Bieganskiego,54.344552,18.6213541,,
mzn2046280659,morizon,https://www.morizon.pl/oferta/sprzedaz-mieszkanie-gdansk-wrzeszcz-lilli-wenedy-63m2-mzn2046280659,Słoneczne mieszkanie 3-pokojowe z potencjałem,750000.0,PLN,11905.0,65.0,3.0,Gdansk,Wrzeszcz,Lilli,54.3864698,18.6170613,,
mzn2046411717,morizon,https://www.morizon.pl/oferta/sprzedaz-mieszkanie-gdansk-piecki-migowo-morenowe-wzgorze-57m2-mzn2046411717,Przytulne 3 pokojowe mieszkanie - Gdańsk Morena,855000.0,PLN,15000.0,57.0,3.0,Gdansk,Piecki,Migowo,54.356155,18.578460200000002,,
mzn2046380863,morizon,https://www.morizon.pl/oferta/sprzedaz-mieszkanie-gdansk-srodmiescie-chmielna-62m2-mzn2046380863,Unikalny apartament z widokiem na Motławę,2633300.0,PLN,42473.0,65.0,3.0,Gdansk,Srodmiescie,Chmielna,54.3436213,18.6541268,,
mzn2044751347,morizon,https://www.morizon.pl/oferta/sprzedaz-mieszkanie-gdansk-srodmiescie-stara-stocznia-60m2-mzn2044751347,Komfortowy Apartament bo by- Gdańsk Stare Miasto widok na Motławe,1699000.0,PLN,28317.0,60.0,3.0,Gdansk,Srodmiescie,Stara,54.3191523,18.6243062,,
mzn2046191908,morizon,https://www.morizon.pl/oferta/sprzedaz-mieszkanie-gdansk-przymorze-maurycego-beniowskiego-47m2-mzn2046191908,Mieszkanie 2 pok. z ogródkiem. Gdańsk-Przymorze,950900.0,PLN,20232.0,50.0,2.0,Gdansk,Przymorze,Maurycego,54.4112794,18.5769277,,
mzn2046304813,morizon,https://www.morizon.pl/oferta/sprzedaz-mieszkanie-pomorskie-gdansk-55m2-mzn2046304813,Mieszkanie z widokiem na góry,265000.0,PLN,4818.0,55.0,3.0,Pomorskie,Gdansk,,54.3706835,18.68987,,
mzn2046262997,morizon,https://www.morizon.pl/oferta/sprzedaz-mieszkanie-gdansk-wrzeszcz-lelewela-48m2-mzn2046262997,Jasne 2-3 pokoje+Tramwaj/SKM*Do zamieszkania+GARAŻ*Lokalizacja,660000.0,PLN,13750.0,48.0,3.0,Gdansk,Wrzeszcz,Lelewela,54.379389950000004,18.60313655,,
mzn2043123916,morizon,https://www.morizon.pl/oferta/sprzedaz-mieszkanie-gdansk-srodmiescie-stara-stocznia-70m2-mzn2043123916,"Luksusowy Apartament Stare Miasto Gdańsk, Stara Stocznia 8",81999000.0,PLN,28557.0,2871.42,3.0,Gdansk,Srodmiescie,Stara,54.3191523,18.6243062,,
mzn2046469349,morizon,https://www.morizon.pl/oferta/sprzedaz-mieszkanie-gdansk-zabianka-wejhera-jelitkowo-tysiaclecia-grunwaldzka-56m2-mzn2046469349,Sprzedam mieszkanie nad morzem + garaż Oliwa,755000.0,PLN,13482.0,58.0,3.0,Gdansk,Zabianka,Wejhera,54.419478999999995,18.57616435,,
mzn2043304419,morizon,https://www.morizon.pl/oferta/sprzedaz-mieszkanie-gdansk-srodmiescie-stara-stocznia-49m2-mzn2043304419,"Komfortowy Apartament- Gdańsk Stare Miasto widok na Motławe , Stara Stocznia 20",201469000.0,PLN,29980.0,6720.11,2.0,Gdansk,Srodmiescie,Stara,54.3191523,18.6243062,,
mzn2046386575,morizon,https://www.morizon.pl/oferta/sprzedaz-mieszkanie-gdansk-brzezno-hallera-78m2-mzn2046386575,"Apartament z dostępem do sauny, siłowni i kortu",1250000.0,PLN,16026.0,79.0,3.0,Gdansk,Brzezno,Hallera,54.3967767,18.6200054,,
mzn2045919325,morizon,https://www.morizon.pl/oferta/sprzedaz-mieszkanie-gdansk-srodmiescie-lisia-grobla-49m2-mzn2045919325,"Apartament w Gdańsku, Doki Montownia- Stare Miasto blisko przy Motławie",1197000.0,PLN,24429.0,49.0,2.0,Gdansk,Srodmiescie,Lisia,54.35326684,18.65405565,,
mzn2046456567,morizon,https://www.morizon.pl/oferta/sprzedaz-mieszkanie-gdansk-brzezno-pck-48m2-mzn2046456567,"2 pokoje, świetna lokalizacja",660000.0,PLN,13750.0,48.0,2.0,Gdansk,Brzezno,Pck,54.4045806,18.63265165,,
mzn2045306706,morizon,https://www.morizon.pl/oferta/sprzedaz-mieszkanie-gdansk-chelm-bieganskiego-50m2-mzn2045306706,Winda*Słoneczne* Po remoncie*Blisko Centrum*Dwustronne*Ładny widok,649000.0,PLN,12980.0,50.0,2.0,Gdansk,Chelm,Bieganskiego,54.344552,18.6213541,,
mzn2044770956,morizon,https://www.morizon.pl/oferta/sprzedaz-mieszkanie-gdansk-wrzeszcz-jesionowa-6b-36m2-mzn2044770956,Mieszkanie na sprzedaż - 36 m² - 2 pokoje Wrzeszcz Gdańsk,356000.0,PLN,16260.0,21.89,2.0,Gdansk,Wrzeszcz,Jesionowa,54.379389950000004,18.60313655,,
mzn2045748050,morizon,https://www.morizon.pl/oferta/sprzedaz-mieszkanie-gdansk-jasien-czerminskiego-21-33m2-mzn2045748050,Mieszkanie na sprzedaż - 33 m² - 1 pokój Jasień Gdańsk,427000.0,PLN,12781.0,34.0,2.0,Gdansk,Jasien,Czerminskiego,54.3243396,18.5568677,,
mzn2045432547,morizon,https://www.morizon.pl/oferta/sprzedaz-mieszkanie-gdansk-jasien-czerminskiego-21-55m2-mzn2045432547,Mieszkanie na sprzedaż - 55 m² - 3 pokoje Jasień Gdańsk,583000.0,PLN,10476.0,55.65,3.0,Gdansk,Jasien,Czerminskiego,54.3243396,18.5568677,,
mzn2045878069,morizon,https://www.morizon.pl/oferta/sprzedaz-mieszkanie-gdansk-wrzeszcz-jaskowa-dolina-84m2-mzn2045878069,Bezczynszowy | Parter domu z ogrodem | Przy lesie,739900.0,PLN,8761.0,84.45,3.0,Gdansk,Wrzeszcz,Jaskowa,54.3674802,18.5913181,,
mzn2046214223,morizon,https://www.morizon.pl/oferta/sprzedaz-mieszkanie-gdansk-srodmiescie-angielska-grobla-21m2-mzn2046214223,Kawalerka w sercu Gdańska – Angielska Grobla - nis,449000.0,PLN,21381.0,21.0,3.0,Gdansk,Srodmiescie,Angielska,54.35035155,18.6558259,,
mzn2046511883,morizon,https://www.morizon.pl/oferta/sprzedaz-mieszkanie-gdansk-wrzeszcz-zywiecka-45m2-mzn2046511883,0 % PROWIZJI DLA KUPUJĄCEGO,599000.0,PLN,13159.0,45.52,2.0,Gdansk,Wrzeszcz,Zywiecka,54.38473064,18.615345955,,
mzn2046290632,morizon,https://www.morizon.pl/oferta/sprzedaz-mieszkanie-gdansk-ujescisko-lostowice-pastelowa-58m2-mzn2046290632,Mieszkanie na sprzedaż - 58 m² - 3 pokoje Ujeścisko-Łostowice Gdańsk,668000.0,PLN,11466.0,58.26,3.0,Gdansk,Ujescisko,Lostowice,54.3119715,18.5930729,,
mzn2046451115,morizon,https://www.morizon.pl/oferta/sprzedaz-mieszkanie-gdansk-ujescisko-lostowice-cedrowa-64m2-mzn2046451115,3 pokoje Wolne Miasto,1030000.0,PLN,15890.0,64.82,3.0,Gdansk,Ujescisko,Lostowice,54.31911,18.5918006,,
mzn2046412375,morizon,https://www.morizon.pl/oferta/sprzedaz-mieszkanie-gdansk-letnica-sucha-62m2-mzn2046412375,"Duże, nowoczesne mieszkanie blisko plaży",1290000.0,PLN,20786.0,62.06,3.0,Gdansk,Letnica,Sucha,54.38985155,18.6498714,,
mzn2044561509,morizon,https://www.morizon.pl/oferta/sprzedaz-mieszkanie-gdansk-brzezno-kobieli-4-34m2-mzn2044561509,Mieszkanie na sprzedaż - 34 m² - 1 pokój Brzeźno Gdańsk,667680.0,PLN,19500.0,34.24,2.0,Gdansk,Brzezno,Kobieli,54.4045806,18.63265165,,
mzn2044561514,morizon,https://www.morizon.pl/oferta/sprzedaz-mieszkanie-gdansk-brzezno-kobieli-4-92m2-mzn2044561514,Mieszkanie na sprzedaż - 92 m² - 4 pokoje Brzeźno Gdańsk,1718650.0,PLN,18500.0,92.9,4.0,Gdansk,Brzezno,Kobieli,54.4045806,18.63265165,,
mzn2045755074,morizon,https://www.morizon.pl/oferta/sprzedaz-mieszkanie-gdansk-brzezno-mazurska-89m2-mzn2045755074,Dwupoziomowe mieszkanie z widokiem na Zatokę Gdań,998000.0,PLN,11213.0,89.0,4.0,Gdansk,Brzezno,Mazurska,54.4045806,18.63265165,,
mzn2045457111,morizon,https://www.morizon.pl/oferta/sprzedaz-mieszkanie-gdansk-ujescisko-lostowice-warszawska-44m2-mzn2045457111,Mieszkanie na sprzedaż - 44 m² - 2 pokoje Ujeścisko-Łostowice Gdańsk,599265.0,PLN,13500.0,44.39,2.0,Gdansk,Ujescisko,Lostowice,54.3119715,18.5930729,,
mzn2045457086,morizon,https://www.morizon.pl/oferta/sprzedaz-mieszkanie-gdansk-ujescisko-lostowice-warszawska-49m2-mzn2045457086,Mieszkanie na sprzedaż - 49 m² - 3 pokoje Ujeścisko-Łostowice Gdańsk,643500.0,PLN,13000.0,49.5,3.0,Gdansk,Ujescisko,Lostowice,54.3119715,18.5930729,,
mzn2044561176,morizon,https://www.morizon.pl/oferta/sprzedaz-mieszkanie-gdansk-orunia-sw-wojciech-lipce-kazimierza-wielkiego-39m2-mzn2044561176,Mieszkanie na sprzedaż - 39 m² - 2 pokoje Orunia-Św. Wojciech-Lipce Gdańsk,356000.0,PLN,11053.0,32.21,2.0,Gdansk,Orunia,Sw,54.3732816,18.6006758,,
mzn2044561159,morizon,https://www.morizon.pl/oferta/sprzedaz-mieszkanie-gdansk-orunia-sw-wojciech-lipce-kazimierza-wielkiego-32m2-mzn2044561159,Mieszkanie na sprzedaż - 32 m² - 2 pokoje Orunia-Św. Wojciech-Lipce Gdańsk,356000.0,PLN,7708.0,46.19,2.0,Gdansk,Orunia,Sw,54.3732816,18.6006758,,
mzn2045464520,morizon,https://www.morizon.pl/oferta/sprzedaz-mieszkanie-gdansk-ujescisko-lostowice-sw-huberta-81m2-mzn2045464520,KOMFORTOWE MIESZKANIE Z WŁASNYM OGRODEM I GARAŻEM,1090000.0,PLN,13376.0,81.49,3.0,Gdansk,Ujescisko,Lostowice,54.3119715,18.5930729,,
mzn2046448848,morizon,https://www.morizon.pl/oferta/sprzedaz-mieszkanie-gdansk-jasien-leszczynowa-71m2-mzn2046448848,"3 pokoje z oddzielną kuchnią, 71,8m2, Jasień",859000.0,PLN,11964.0,71.8,3.0,Gdansk,Jasien,Leszczynowa,54.33519039,18.5497284,,
mzn2046420973,morizon,https://www.morizon.pl/oferta/sprzedaz-mieszkanie-gdansk-przymorze-prezydenta-lecha-kaczynskiego-123m2-mzn2046420973,Apartament 5-pokojowy z widokiem panoramy Gdańska,3779000.0,PLN,30724.0,123.0,4.0,Gdansk,Przymorze,Prezydenta,54.40754,18.59646325,,
mzn2046380602,morizon,https://www.morizon.pl/oferta/sprzedaz-mieszkanie-gdansk-kokoszki-nowatorow-62m2-mzn2046380602,Mieszkanie w wysokim standardzie 62 m2,2799000.0,PLN,12782.0,218.98,2.0,Gdansk,Kokoszki,Nowatorow,54.357105059999995,18.48932498,,
mzn2046381064,morizon,https://www.morizon.pl/oferta/sprzedaz-mieszkanie-gdansk-kokoszki-kartuska-78m2-mzn2046381064,Kup i zarabiaj od razu 3 pokoje z garażem i balkon,895000.0,PLN,11401.0,78.5,3.0,Gdansk,Kokoszki,Kartuska,54.3488205,18.5305699,,
mzn2046293311,morizon,https://www.morizon.pl/oferta/sprzedaz-mieszkanie-gdansk-orunia-sw-wojciech-lipce-zulawska-38m2-mzn2046293311,Dwupokojowe mieszkanie blisko centrum Gdańska,420000.0,PLN,11053.0,38.0,2.0,Gdansk,Orunia,Sw,54.3732816,18.6006758,,
mzn2046273454,morizon,https://www.morizon.pl/oferta/sprzedaz-mieszkanie-gdansk-zaspa-aleja-jana-pawla-ii-74m2-mzn2046273454,Balkon | 15 minut od morza | Po remoncie,1349000.0,PLN,18059.0,74.7,4.0,Gdansk,Zaspa,Aleja,54.39645835,18.605411150000002,,
mzn2046435470,morizon,https://www.morizon.pl/oferta/sprzedaz-mieszkanie-gdansk-ujescisko-lostowice-wielkopolska-72m2-mzn2046435470,Nowoczesny Apartament w podwyższonym standardzie,899000.0,PLN,12427.0,72.34,3.0,Gdansk,Ujescisko,Lostowice,54.3119715,18.5930729,,
mzn2046208940,morizon,https://www.morizon.pl/oferta/sprzedaz-mieszkanie-gdansk-letnica-letnicka-62m2-mzn2046208940,Apartament 3-pokojowy w wysokim standard! Letnica,1198000.0,PLN,19049.0,62.89,3.0,Gdansk,Letnica,Letnicka,54.4036178,18.6511808,,
mzn2046380604,morizon,https://www.morizon.pl/oferta/sprzedaz-mieszkanie-gdansk-letnica-letnicka-63m2-mzn2046380604,Apartament 3-pokojowy w wysokim standard! Letnica,1198000.0,PLN,19016.0,63.0,3.0,Gdansk,Letnica,Letnicka,54.4036178,18.6511808,,
mzn2046251900,morizon,https://www.morizon.pl/oferta/sprzedaz-mieszkanie-gdansk-wrzeszcz-partyzantow-31m2-mzn2046251900,Mieszkanie do remontu - możliwość 2 pokoi,450000.0,PLN,14516.0,31.0,2.0,Gdansk,Wrzeszcz,Partyzantow,54.3796111,18.5892612,,
mzn2046268169,morizon,https://www.morizon.pl/oferta/sprzedaz-mieszkanie-gdansk-przymorze-chlopska-45m2-mzn2046268169,2 Pokoje po remoncie - Blisko Morza,729000.0,PLN,16200.0,45.0,2.0,Gdansk,Przymorze,Chlopska,54.4199965,18.5840178,,
mzn2044950499,morizon,https://www.morizon.pl/oferta/sprzedaz-mieszkanie-gdansk-jasien-kartuska-28m2-mzn2044950499,Kawalerka w stanie deweloperskim z halą garażową,349000.0,PLN,12464.0,28.0,2.0,Gdansk,Jasien,Kartuska,54.3488205,18.5305699,,
mzn2044635530,morizon,https://www.morizon.pl/oferta/sprzedaz-mieszkanie-gdansk-ujescisko-lostowice-nowosadecka-67m2-mzn2044635530,3-pokojowe mieszkanie w pełni wyposażone! Gdańsk,740000.0,PLN,10963.0,67.5,3.0,Gdansk,Ujescisko,Lostowice,54.31911,18.5918006,,
mzn2044945791,morizon,https://www.morizon.pl/oferta/sprzedaz-mieszkanie-gdansk-strzyza-mariana-hemara-37m2-mzn2044945791,2 pokojowe mieszkanie na Garnizonie,1300000.0,PLN,34301.0,37.9,2.0,Gdansk,Strzyza,Mariana,54.3359456,18.6655092,,
mzn2046457370,morizon,https://www.morizon.pl/oferta/sprzedaz-mieszkanie-gdansk-chelm-prof-jozefa-wieckowskiego-49m2-mzn2046457370,"Mieszkanie 2 pok,pow.49,20m Gdańsk Chełm/super lokalizacja",669000.0,PLN,13598.0,49.2,2.0,Gdansk,Chelm,Prof,54.3836134,18.5805733,,
mzn2046426906,morizon,https://www.morizon.pl/oferta/sprzedaz-mieszkanie-gdansk-orunia-gorna-gdansk-poludnie-turkusowa-42m2-mzn2046426906,Atrakcyjne 2 pokoje - Orunia Górna,449000.0,PLN,10690.0,42.0,2.0,Gdansk,Orunia,Gorna,54.347549,18.641673,,
mzn2046421201,morizon,https://www.morizon.pl/oferta/sprzedaz-mieszkanie-gdansk-letnica-sucha-31m2-mzn2046421201,Atrakcyjne Studio z widokiem na Morze,629000.0,PLN,19892.0,31.62,2.0,Gdansk,Letnica,Sucha,54.38985155,18.6498714,,
mzn2046495396,morizon,https://www.morizon.pl/oferta/sprzedaz-mieszkanie-gdansk-siedlce-szara-27m2-mzn2046495396,Mieszkanie 1 pok.pow.27 m Gdańsk Siedlce ul.Szara,339000.0,PLN,12556.0,27.0,2.0,Gdansk,Siedlce,Szara,54.34931541,18.619122505,,
mzn2046257090,morizon,https://www.morizon.pl/oferta/sprzedaz-mieszkanie-gdansk-brzezno-aleja-gen-jozefa-hallera-105m2-mzn2046257090,Premium apartament z widokiem na morze,2999999.0,PLN,28347.0,105.83,4.0,Gdansk,Brzezno,Aleja,54.391633,18.5996092,,
mzn2046253084,morizon,https://www.morizon.pl/oferta/sprzedaz-mieszkanie-gdansk-wrzeszcz-gen-jozefa-hallera-37m2-mzn2046253084,Zajezdnia Wrzeszcz - Prestiżowa lokalizacja,729000.0,PLN,19435.0,37.51,2.0,Gdansk,Wrzeszcz,Gen,54.379389950000004,18.60313655,,
mzn2046225667,morizon,https://www.morizon.pl/oferta/sprzedaz-mieszkanie-gdansk-srodmiescie-chlebnicka-52m2-mzn2046225667,Mieszkanie 3 pok.(w kw.2 pok)Gdańsk ul.Chlebnicka,949000.0,PLN,18069.0,52.52,3.0,Gdansk,Srodmiescie,Chlebnicka,54.35326684,18.65405565,,
mzn2045844424,morizon,https://www.morizon.pl/oferta/sprzedaz-mieszkanie-gdansk-siedlce-skarpowa-53m2-mzn2045844424,Gdańsk Siedlce 2 pokoje z możliwością na 3,3559000.0,PLN,10488.0,339.34,2.0,Gdansk,Siedlce,Skarpowa,54.34931541,18.619122505,,
mzn2045117778,morizon,https://www.morizon.pl/oferta/sprzedaz-mieszkanie-gdansk-srodmiescie-stara-stocznia-64m2-mzn2045117778,Widokowy apartament przy Motławie,1599000.0,PLN,24714.0,64.7,3.0,Gdansk,Srodmiescie,Stara,54.3191523,18.6243062,,
mzn2044914033,morizon,https://www.morizon.pl/oferta/sprzedaz-mieszkanie-gdansk-zaspa-jana-pawla-ii-34m2-mzn2044914033,Apartament z halą garażową Zaspa Awiator OKAZJA,650000.0,PLN,19118.0,34.0,2.0,Gdansk,Zaspa,Jana,54.39645835,18.605411150000002,,
mzn2045432670,morizon,https://www.morizon.pl/oferta/sprzedaz-mieszkanie-gdansk-srodmiescie-chmielna-41m2-mzn2045432670,Mieszkanie w sercu Gdańska - Wyspa Spichrzów,1100000.0,PLN,26680.0,41.23,2.0,Gdansk,Srodmiescie,Chmielna,54.35035155,18.6558259,,
mzn2044156776,morizon,https://www.morizon.pl/oferta/sprzedaz-mieszkanie-gdansk-srodmiescie-stara-stocznia-69m2-mzn2044156776,Apartament w Brabanku stan deweloperski,2290000.0,PLN,32850.0,69.71,3.0,Gdansk,Srodmiescie,Stara,54.3191523,18.6243062,,
mzn2045448633,morizon,https://www.morizon.pl/oferta/sprzedaz-mieszkanie-pomorskie-gdansk-partyzantow-31m2-mzn2045448633,Kawalerka z oddzielną kuchnią blisko Garnizonu,459000.0,PLN,14618.0,31.4,2.0,Pomorskie,Gdansk,Partyzantow,54.505714,18.5390394,,
mzn2046103519,morizon,https://www.morizon.pl/oferta/sprzedaz-mieszkanie-gdansk-przymorze-slaska-50m2-mzn2046103519,3 pokojowe mieszkanie - Przymorze Gdańsk,660000.0,PLN,13200.0,50.0,3.0,Gdansk,Przymorze,Slaska,54.4061637,18.5744742,,
mzn2046487259,morizon,https://www.morizon.pl/oferta/sprzedaz-mieszkanie-gdansk-srodmiescie-chmielna-32m2-mzn2046487259,2-pokojowe mieszkanie Gdańsk Wyspa Spichrzów,576000.0,PLN,18000.0,32.0,2.0,Gdansk,Srodmiescie,Chmielna,54.35035155,18.6558259,,
mzn2046474899,morizon,https://www.morizon.pl/oferta/sprzedaz-mieszkanie-gdansk-piecki-migowo-magellana-63m2-mzn2046474899,Osiedle Wzgórze Magellana - jasne 3 pokoje,1050000.0,PLN,16667.0,63.0,3.0,Gdansk,Piecki,Migowo,54.356155,18.578460200000002,,
mzn2046486721,morizon,https://www.morizon.pl/oferta/sprzedaz-mieszkanie-gdansk-przymorze-aleja-rzeczypospolitej-65m2-mzn2046486721,4- pokojowe mieszkanie blisko morza i p Regana,829000.0,PLN,12754.0,65.0,4.0,Gdansk,Przymorze,Aleja,54.391633,18.5996092,,
mzn2046421282,morizon,https://www.morizon.pl/oferta/sprzedaz-mieszkanie-gdansk-orunia-gorna-gdansk-poludnie-ofiar-grudnia-38m2-mzn2046421282,Miejsce postojowe | Balkon | 2 pokoje,619000.0,PLN,16166.0,38.29,2.0,Gdansk,Orunia,Gorna,54.347549,18.641673,,
mzn2046410669,morizon,https://www.morizon.pl/oferta/sprzedaz-mieszkanie-gdansk-srodmiescie-chmielna-32m2-mzn2046410669,Mieszkanie z strefą SPA w sercu Gdańska,849000.0,PLN,26531.0,32.0,2.0,Gdansk,Srodmiescie,Chmielna,54.35035155,18.6558259,,
mzn2044899867,morizon,https://www.morizon.pl/oferta/sprzedaz-mieszkanie-gdansk-srodmiescie-kamienna-grobla-28-29-23m2-mzn2044899867,Mieszkanie na sprzedaż - 23 m² - 1 pokój Śródmieście Gdańsk,356000.0,PLN,23108.0,15.41,3.0,Gdansk,Srodmiescie,Kamienna,54.3828698,18.5708707,,
mzn2046426506,morizon,https://www.morizon.pl/oferta/sprzedaz-mieszkanie-gdansk-zabianka-wejhera-jelitkowo-tysiaclecia-gospody-43m2-mzn2046426506,Mieszkanie 3 pokoje po remoncie Żabianka,770000.0,PLN,17907.0,43.0,3.0,Gdansk,Zabianka,Wejhera,54.420626420000005,18.58337421,,
mzn2046475239,morizon,https://www.morizon.pl/oferta/sprzedaz-mieszkanie-gdansk-srodmiescie-podzamcze-39m2-mzn2046475239,2-pokojowe mieszkanie w centrum Gdańska,700000.0,PLN,17949.0,39.0,2.0,Gdansk,Srodmiescie,Podzamcze,54.35035155,18.6558259,,
mzn2046292909,morizon,https://www.morizon.pl/oferta/sprzedaz-mieszkanie-gdansk-jasien-stezycka-150m2-mzn2046292909,Apartament z dużym ogrodem (400m2) na Jasieniu,1890000.0,PLN,12600.0,150.0,2.0,Gdansk,Jasien,Stezycka,54.3356073,18.5334714,,
mzn2046420974,morizon,https://www.morizon.pl/oferta/sprzedaz-mieszkanie-gdansk-osowa-jednorozca-56m2-mzn2046420974,Mieszkanie 2 pokojowe z odrębną kuchnią,639000.0,PLN,11264.0,56.73,2.0,Gdansk,Osowa,Jednorozca,54.41971985,18.473725299999998,,
mzn2046274399,morizon,https://www.morizon.pl/oferta/sprzedaz-mieszkanie-gdansk-przymorze-38m2-mzn2046274399,Słoneczne mieszkanie z widokiem na Przymorze,548000.0,PLN,14421.0,38.0,2.0,Gdansk,Przymorze,,54.40754,18.59646325,,
mzn2046414802,morizon,https://www.morizon.pl/oferta/sprzedaz-mieszkanie-gdansk-przymorze-piastowska-38m2-mzn2046414802,Mieszkanie po remoncie blisko plaży,645000.0,PLN,16974.0,38.0,2.0,Gdansk,Przymorze,Piastowska,54.416023,18.5858833,,
mzn2046485908,morizon,https://www.morizon.pl/oferta/sprzedaz-mieszkanie-gdansk-siedlce-seweryna-goszczynskiego-36m2-mzn2046485908,Nowe mieszkanie z balkonem | Gdańsk Siedlce,670824.0,PLN,18150.0,36.96,2.0,Gdansk,Siedlce,Seweryna,54.34931541,18.619122505,,
mzn2046485909,morizon,https://www.morizon.pl/oferta/sprzedaz-mieszkanie-gdansk-siedlce-seweryna-goszczynskiego-44m2-mzn2046485909,2 pokoje blisko centrum Gdańska Bez PCC i prowizji,710556.0,PLN,15850.0,44.83,2.0,Gdansk,Siedlce,Seweryna,54.34931541,18.619122505,,
mzn2046485910,morizon,https://www.morizon.pl/oferta/sprzedaz-mieszkanie-gdansk-siedlce-seweryna-goszczynskiego-52m2-mzn2046485910,Gdańsk Siedlce | 3 pokoje w doskonałej lokalizacji,823140.0,PLN,15775.0,52.18,3.0,Gdansk,Siedlce,Seweryna,54.34931541,18.619122505,,
mzn2046475371,morizon,https://www.morizon.pl/oferta/sprzedaz-mieszkanie-gdansk-mlyniska-twarda-25m2-mzn2046475371,Nowe mieszkania w zielonej części Gdańska,373256.0,PLN,14800.0,25.22,2.0,Gdansk,Mlyniska,Twarda,54.3767209,18.6351035,,
mzn2046475372,morizon,https://www.morizon.pl/oferta/sprzedaz-mieszkanie-gdansk-mlyniska-twarda-25m2-mzn2046475372,Zamieszkaj lub zainwestuj w Gdańsku,373404.0,PLN,14800.0,25.23,2.0,Gdansk,Mlyniska,Twarda,54.3767209,18.6351035,,
mzn2046475096,morizon,https://www.morizon.pl/oferta/sprzedaz-mieszkanie-gdansk-srodmiescie-mostek-27m2-mzn2046475096,Inwestycyjna kawalerka w Gdańsku nad Motławą,420978.0,PLN,15325.0,27.47,2.0,Gdansk,Srodmiescie,Mostek,54.3511083,18.6740659,,
mzn2046475373,morizon,https://www.morizon.pl/oferta/sprzedaz-mieszkanie-gdansk-mlyniska-twarda-35m2-mzn2046475373,Bez PCC i prowizji | Mieszkania Gdańsk,496230.0,PLN,13900.0,35.7,2.0,Gdansk,Mlyniska,Twarda,54.3767209,18.6351035,,
mzn2046475098,morizon,https://www.morizon.pl/oferta/sprzedaz-mieszkanie-gdansk-srodmiescie-mostek-32m2-mzn2046475098,Nowe 2 pokoje blisko Starego Miasta,569037.0,PLN,17525.0,32.47,2.0,Gdansk,Srodmiescie,Mostek,54.3511083,18.6740659,,
mzn2046475097,morizon,https://www.morizon.pl/oferta/sprzedaz-mieszkanie-gdansk-srodmiescie-mostek-33m2-mzn2046475097,2 pokoje Gdańsk | Bez PCC i prowizji,590188.0,PLN,17750.0,33.25,2.0,Gdansk,Srodmiescie,Mostek,54.3511083,18.6740659,,
mzn2046297283,morizon,https://www.morizon.pl/oferta/sprzedaz-mieszkanie-gdansk-brzezno-34m2-mzn2046297283,Brzeźno - nowa inwestycja BLISKO MORZA,669825.0,PLN,19259.0,34.78,2.0,Gdansk,Brzezno,,54.4045806,18.63265165,,
mzn2046398383,morizon,https://www.morizon.pl/oferta/sprzedaz-mieszkanie-pomorskie-gdansk-sienna-grobla-36m2-mzn2046398383,Ekskluzywny apartament Nadmotławie z silównią,680985.0,PLN,18500.0,36.81,2.0,Pomorskie,Gdansk,Sienna,54.3587226,18.6979064,,
mzn2046475374,morizon,https://www.morizon.pl/oferta/sprzedaz-mieszkanie-gdansk-mlyniska-twarda-53m2-mzn2046475374,Nowoczesne mieszkania blisko centrum Gdańska,774516.0,PLN,14575.0,53.14,3.0,Gdansk,Mlyniska,Twarda,54.3767209,18.6351035,,
mzn2046280093,morizon,https://www.morizon.pl/oferta/sprzedaz-mieszkanie-gdansk-jasien-gen-wladyslawa-andersa-35m2-mzn2046280093,Mieszkanie na sprzedaż - 35 m² - 1 pokój Jasień Gdańsk,653077.0,PLN,18350.0,35.59,2.0,Gdansk,Jasien,Gen,54.33519039,18.5497284,,
mzn2046280092,morizon,https://www.morizon.pl/oferta/sprzedaz-mieszkanie-gdansk-jasien-gen-wladyslawa-andersa-56m2-mzn2046280092,Mieszkanie na sprzedaż - 56 m² - 3 pokoje Jasień Gdańsk,869424.0,PLN,15350.0,56.64,3.0,Gdansk,Jasien,Gen,54.33519039,18.5497284,,
mzn2046475099,morizon,https://www.morizon.pl/oferta/sprzedaz-mieszkanie-gdansk-srodmiescie-mostek-50m2-mzn2046475099,Gdańsk – 3 pokoje nad Motławą,837900.0,PLN,16625.0,50.4,3.0,Gdansk,Srodmiescie,Mostek,54.3511083,18.6740659,,
mzn2046380699,morizon,https://www.morizon.pl/oferta/sprzedaz-mieszkanie-gdansk-brzezno-50m2-mzn2046380699,Brzeźno - nowa inwestycja BLISKO MORZA - 2 pokoje,919105.0,PLN,18349.0,50.09,2.0,Gdansk,Brzezno,,54.4045806,18.63265165,,
mzn2046398381,morizon,https://www.morizon.pl/oferta/sprzedaz-mieszkanie-gdansk-srodmiescie-stepkarska-68m2-mzn2046398381,Nowe 3-pokojowe mieszkanie w centrum Gdańska,1295028.0,PLN,18900.0,68.52,3.0,Gdansk,Srodmiescie,Stepkarska,54.3571396,18.6632596,,
mzn2046380600,morizon,https://www.morizon.pl/oferta/sprzedaz-mieszkanie-gdansk-brzezno-87m2-mzn2046380600,Brzeźno - nowa inwestycja BLISKO MORZA - 3 pokoje,1668744.0,PLN,19148.0,87.15,3.0,Gdansk,Brzezno,,54.4045806,18.63265165,,
mzn2046380601,morizon,https://www.morizon.pl/oferta/sprzedaz-mieszkanie-gdansk-brzezno-99m2-mzn2046380601,Brzeźno - nowa inwestycja BLISKO MORZA - 4 pokoje,2220190.0,PLN,22417.0,99.04,4.0,Gdansk,Brzezno,,54.4045806,18.63265165,,
mzn2046455655,morizon,https://www.morizon.pl/oferta/sprzedaz-mieszkanie-gdansk-orunia-gorna-gdansk-poludnie-platynowa-30m2-mzn2046455655,Kawalerka z ogródkiem wsród zieleni,463706.0,PLN,15218.0,30.47,2.0,Gdansk,Orunia,Gorna,54.347549,18.641673,,
mzn2046456620,morizon,https://www.morizon.pl/oferta/sprzedaz-mieszkanie-gdansk-orunia-gorna-gdansk-poludnie-platynowa-30m2-mzn2046456620,Kawalerka wsród zieleni,473903.0,PLN,15386.0,30.8,2.0,Gdansk,Orunia,Gorna,54.347549,18.641673,,
mzn2046452036,morizon,https://www.morizon.pl/oferta/sprzedaz-mieszkanie-gdansk-orunia-gorna-gdansk-poludnie-platynowa-38m2-mzn2046452036,Dwupokojowe mieszkanie blisko centrum Gdańska,565985.0,PLN,14859.0,38.09,2.0,Gdansk,Orunia,Gorna,54.347549,18.641673,,
mzn2046455657,morizon,https://www.morizon.pl/oferta/sprzedaz-mieszkanie-gdansk-orunia-gorna-gdansk-poludnie-platynowa-62m2-mzn2046455657,3 pokoje z tarasem,868805.0,PLN,13883.0,62.58,3.0,Gdansk,Orunia,Gorna,54.347549,18.641673,,
mzn2046452035,morizon,https://www.morizon.pl/oferta/sprzedaz-mieszkanie-gdansk-orunia-gorna-gdansk-poludnie-platynowa-117m2-mzn2046452035,Przestronne mieszkanie z dużym tarasem,1635743.0,PLN,13972.0,117.07,4.0,Gdansk,Orunia,Gorna,54.347549,18.641673,,
mzn2046158859,morizon,https://www.morizon.pl/oferta/sprzedaz-mieszkanie-gdansk-wrzeszcz-grunwaldzka-29m2-mzn2046158859,Klimatyczna kawalerka w centrum Wrzeszcza,470000.0,PLN,16207.0,29.0,2.0,Gdansk,Wrzeszcz,Grunwaldzka,54.4128452,18.5677463,,
mzn2046253435,morizon,https://www.morizon.pl/oferta/sprzedaz-mieszkanie-gdansk-wrzeszcz-magellana-67m2-mzn2046253435,WIDOK NA LAS|2 BALKONY| HALA| KOMÓRKA|DO ODBIORU,1115000.0,PLN,16610.0,67.13,3.0,Gdansk,Wrzeszcz,Magellana,54.3642717,18.5820312,,
mzn2046391394,morizon,https://www.morizon.pl/oferta/sprzedaz-mieszkanie-pomorskie-gdansk-sienna-grobla-26m2-mzn2046391394,Apartament nad Motławą z widokiem na rzekę,509000.0,PLN,19244.0,26.45,2.0,Pomorskie,Gdansk,Sienna,54.3587226,18.6979064,,
mzn2046455656,morizon,https://www.morizon.pl/oferta/sprzedaz-mieszkanie-gdansk-orunia-gorna-gdansk-poludnie-platynowa-62m2-mzn2046455656,3 pokoje z ogródkiem,755402.0,PLN,12108.0,62.39,3.0,Gdansk,Orunia,Gorna,54.347549,18.641673,,
mzn2046452034,morizon,https://www.morizon.pl/oferta/sprzedaz-mieszkanie-gdansk-orunia-gorna-gdansk-poludnie-platynowa-38m2-mzn2046452034,Dwupokojowe mieszkanie blisko centrum,526124.0,PLN,13751.0,38.26,2.0,Gdansk,Orunia,Gorna,54.347549,18.641673,,
mzn2046452037,morizon,https://www.morizon.pl/oferta/sprzedaz-mieszkanie-gdansk-orunia-gorna-gdansk-poludnie-platynowa-70m2-mzn2046452037,Przestronne mieszkanie z dużym tarasem,941317.0,PLN,13434.0,70.07,4.0,Gdansk,Orunia,Gorna,54.347549,18.641673,,
mzn2046263370,morizon,https://www.morizon.pl/oferta/sprzedaz-mieszkanie-gdansk-ujescisko-lostowice-cedrowa-39m2-mzn2046263370,2 pokojowe mieszkanie na Wolnym Mieście,629000.0,PLN,15824.0,39.75,2.0,Gdansk,Ujescisko,Lostowice,54.31911,18.5918006,,
mzn2046398382,morizon,https://www.morizon.pl/oferta/sprzedaz-mieszkanie-pomorskie-gdansk-sienna-grobla-56m2-mzn2046398382,nowoczesne 3-pokojowe mieszkanie w centrum Gdańska,981925.0,PLN,17500.0,56.11,3.0,Pomorskie,Gdansk,Sienna,54.3587226,18.6979064,,
mzn2046264786,morizon,https://www.morizon.pl/oferta/sprzedaz-mieszkanie-gdansk-zaspa-leszczynskich-100m2-mzn2046264786,"130 m² ogrodu od południa, z widokiem na zieleń",2922330.0,PLN,29000.0,100.77,4.0,Gdansk,Zaspa,Leszczynskich,54.39645835,18.605411150000002,,
mzn2046241379,morizon,https://www.morizon.pl/oferta/sprzedaz-mieszkanie-pomorskie-gdansk-40m2-mzn2046241379,Твоя квартира с видом на Воду,806547.0,PLN,19910.0,40.51,2.0,Pomorskie,Gdansk,,54.3706835,18.68987,,
mzn2046263611,morizon,https://www.morizon.pl/oferta/sprzedaz-mieszkanie-gdansk-jasien-piotrkowska-62m2-mzn2046263611,Trzypokojowe mieszkanie w świetnej lokalizacji,850000.0,PLN,13600.0,62.5,3.0,Gdansk,Jasien,Piotrkowska,54.3291123,18.5839627,,
mzn2046241380,morizon,https://www.morizon.pl/oferta/sprzedaz-mieszkanie-pomorskie-gdansk-sienna-grobla-36m2-mzn2046241380,Nowe budownictwo - CENTRUM MIASTA,884205.0,PLN,24500.0,36.09,2.0,Pomorskie,Gdansk,Sienna,54.3587226,18.6979064,,
mzn2046452032,morizon,https://www.morizon.pl/oferta/sprzedaz-mieszkanie-gdansk-orunia-gorna-gdansk-poludnie-platynowa-30m2-mzn2046452032,Nowe mieszkanie blisko centrum,463706.0,PLN,15218.0,30.47,2.0,Gdansk,Orunia,Gorna,54.347549,18.641673,,
mzn2046260992,morizon,https://www.morizon.pl/oferta/sprzedaz-mieszkanie-gdansk-jasien-leszczynowa-144m2-mzn2046260992,"Mieszkanie jak dom, garaż, 5 pokoi",1380000.0,PLN,9563.0,144.31,4.0,Gdansk,Jasien,Leszczynowa,54.33519039,18.5497284,,
mzn2045913606,morizon,https://www.morizon.pl/oferta/sprzedaz-mieszkanie-gdansk-kokoszki-storczykowa-66m2-mzn2045913606,Słoneczne Mieszkanie z Balkonem | Karczemki,699000.0,PLN,10543.0,66.3,3.0,Gdansk,Kokoszki,Storczykowa,54.3900384,18.4413414,,
mzn2045886001,morizon,https://www.morizon.pl/oferta/sprzedaz-mieszkanie-gdansk-letnica-sucha-43m2-mzn2045886001,2 pokoje blisko morza | Siłownia | Sauna | Ochrona,949000.0,PLN,21816.0,43.5,2.0,Gdansk,Letnica,Sucha,54.38985155,18.6498714,,
mzn2045846948,morizon,https://www.morizon.pl/oferta/sprzedaz-mieszkanie-gdansk-wrzeszcz-magellana-53m2-mzn2045846948,"Zielona okolica, blisko centrum, ul. Magellana",1099000.0,PLN,20523.0,53.55,2.0,Gdansk,Wrzeszcz,Magellana,54.3642717,18.5820312,,
mzn2045602250,morizon,https://www.morizon.pl/oferta/sprzedaz-mieszkanie-gdansk-srodmiescie-panska-75m2-mzn2045602250,Apartament w samym sercu Gdańska,1349000.0,PLN,17987.0,75.0,3.0,Gdansk,Srodmiescie,Panska,54.35035155,18.6558259,,
mzn2045941843,morizon,https://www.morizon.pl/oferta/sprzedaz-mieszkanie-gdansk-ujescisko-lostowice-sloneczna-dolina-47m2-mzn2045941843,2-pokojowe mieszkanie z balkonem i piwnicą,609000.0,PLN,12957.0,47.0,2.0,Gdansk,Ujescisko,Lostowice,54.31911,18.5918006,,
mzn2043006253,morizon,https://www.morizon.pl/oferta/sprzedaz-mieszkanie-gdansk-siedlce-leona-wyczolkowskiego-78m2-mzn2043006253,Klimatyczne mieszkanie z dużym ogrodem i garażem,899000.0,PLN,11526.0,78.0,3.0,Gdansk,Siedlce,Leona,54.3787195,18.6135428,,
mzn2046427013,morizon,https://www.morizon.pl/oferta/sprzedaz-mieszkanie-gdansk-srodmiescie-31m2-mzn2046427013,Nowa kawalerka w centrum Gdańska - INWESTYCJA,637140.0,PLN,20201.0,31.54,2.0,Gdansk,Srodmiescie,,54.35035155,18.6558259,,
mzn2046427014,morizon,https://www.morizon.pl/oferta/sprzedaz-mieszkanie-gdansk-srodmiescie-32m2-mzn2046427014,Apartament w centrum Gdańska - INWESTYCJA,679000.0,PLN,21035.0,32.28,2.0,Gdansk,Srodmiescie,,54.35035155,18.6558259,,
mzn2046427015,morizon,https://www.morizon.pl/oferta/sprzedaz-mieszkanie-gdansk-srodmiescie-32m2-mzn2046427015,Apartament w centrum Gdańska - INWESTYCJA,720000.0,PLN,21845.0,32.96,2.0,Gdansk,Srodmiescie,,54.35035155,18.6558259,,
mzn2046264783,morizon,https://www.morizon.pl/oferta/sprzedaz-mieszkanie-gdansk-zaspa-leszczynskich-40m2-mzn2046264783,Mieszkanie 2-pokojowe – Leszczyńskich,891440.0,PLN,22000.0,40.52,2.0,Gdansk,Zaspa,Leszczynskich,54.39645835,18.605411150000002,,
mzn2046099495,morizon,https://www.morizon.pl/oferta/sprzedaz-mieszkanie-gdansk-wrzeszcz-ludwika-warynskiego-69m2-mzn2046099495,3 pokojowe mieszkanie w centrum Wrzeszcza,999000.0,PLN,14478.0,69.0,3.0,Gdansk,Wrzeszcz,Ludwika,54.3572678,18.7358337,,
mzn2046264785,morizon,https://www.morizon.pl/oferta/sprzedaz-mieszkanie-gdansk-zaspa-leszczynskich-67m2-mzn2046264785,Mieszkanie 3-pokojowe – Leszczyńskich - Zaspa,1373500.0,PLN,20500.0,67.0,3.0,Gdansk,Zaspa,Leszczynskich,54.39645835,18.605411150000002,,
mzn2045081727,morizon,https://www.morizon.pl/oferta/sprzedaz-mieszkanie-gdansk-piecki-migowo-bulonska-59m2-mzn2045081727,3 osobne pokoje Morena,799000.0,PLN,13429.0,59.5,3.0,Gdansk,Piecki,Migowo,54.356155,18.578460200000002,,
mzn2042015943,morizon,https://www.morizon.pl/oferta/sprzedaz-mieszkanie-gdansk-zaspa-pilotow-21-86m2-mzn2042015943,Mieszkanie na sprzedaż - 86 m² - 4 pokoje Zaspa Gdańsk,1423869.0,PLN,16432.0,87.0,4.0,Gdansk,Zaspa,Pilotow,54.3960795,18.5887179,,
mzn2046246654,morizon,https://www.morizon.pl/oferta/sprzedaz-mieszkanie-gdansk-zabianka-wejhera-jelitkowo-tysiaclecia-orlowska-24m2-mzn2046246654,Stylowa kawalerka – 800 m od plaży,599000.0,PLN,24958.0,24.0,2.0,Gdansk,Zabianka,Wejhera,54.420626420000005,18.58337421,,
mzn2046272106,morizon,https://www.morizon.pl/oferta/sprzedaz-mieszkanie-gdansk-srodmiescie-wiosny-ludow-33m2-mzn2046272106,Apartament w samym sercu miasta,824109.0,PLN,24860.0,33.15,2.0,Gdansk,Srodmiescie,Wiosny,54.3572917,18.6654718,,
mzn2046271798,morizon,https://www.morizon.pl/oferta/sprzedaz-mieszkanie-gdansk-srodmiescie-wiosny-ludow-122m2-mzn2046271798,Przestronny Apartament w samym sercu miasta,4429600.0,PLN,36160.0,122.5,4.0,Gdansk,Srodmiescie,Wiosny,54.3572917,18.6654718,,
mzn2046274303,morizon,https://www.morizon.pl/oferta/sprzedaz-mieszkanie-gdansk-letnica-starowiejska-65m2-mzn2046274303,"Nowe, trzypokojowe mieszkanie na Letnicy",1299000.0,PLN,19985.0,65.0,3.0,Gdansk,Letnica,Starowiejska,54.38985155,18.6498714,,
mzn2046081783,morizon,https://www.morizon.pl/oferta/sprzedaz-mieszkanie-gdansk-ujescisko-lostowice-mariana-kolodzieja-84m2-mzn2046081783,Blisko Centrum | Balkon | Dobra komunikacja,950000.0,PLN,11248.0,84.46,4.0,Gdansk,Ujescisko,Lostowice,54.31911,18.5918006,,
mzn2043536953,morizon,https://www.morizon.pl/oferta/sprzedaz-mieszkanie-gdansk-siedlce-zakopianska-51m2-mzn2043536953,Zamieszkaj Blisko Centrum,842820.0,PLN,16500.0,51.08,3.0,Gdansk,Siedlce,Zakopianska,54.34931541,18.619122505,,
mzn2045442155,morizon,https://www.morizon.pl/oferta/sprzedaz-mieszkanie-gdansk-zaspa-leszczynskich-33m2-mzn2045442155,Inwestycyjnie 2 pokoje nad morzem,580000.0,PLN,17523.0,33.1,2.0,Gdansk,Zaspa,Leszczynskich,54.39645835,18.605411150000002,,
mzn2044562816,morizon,https://www.morizon.pl/oferta/sprzedaz-mieszkanie-pomorskie-gdansk-52m2-mzn2044562816,Blisko Centrum | Winda | Garaż,778800.0,PLN,14750.0,52.8,3.0,Pomorskie,Gdansk,,54.3706835,18.68987,,
mzn2044462267,morizon,https://www.morizon.pl/oferta/sprzedaz-mieszkanie-gdansk-wyspa-sobieszewska-turystyczna-44m2-mzn2044462267,Taniej niż u dewelopera - WYSPA SOBIESZEWSKA,935000.0,PLN,20787.0,44.98,2.0,Gdansk,Wyspa,Sobieszewska,54.3495744,18.8163304,,
mzn2044562818,morizon,https://www.morizon.pl/oferta/sprzedaz-mieszkanie-pomorskie-gdansk-71m2-mzn2044562818,4 pokoje | Balkon | Blisko Centrum | Garaż,998979.0,PLN,13925.0,71.74,4.0,Pomorskie,Gdansk,,54.3706835,18.68987,,
mzn2044562471,morizon,https://www.morizon.pl/oferta/sprzedaz-mieszkanie-gdansk-oliwa-artura-grottgera-106m2-mzn2044562471,4 pokojowe mieszkanie z ogrodem w Oliwie,2382083.0,PLN,22464.0,106.04,4.0,Gdansk,Oliwa,Artura,54.4086874,18.5599567,,
mzn2044562817,morizon,https://www.morizon.pl/oferta/sprzedaz-mieszkanie-pomorskie-gdansk-37m2-mzn2044562817,2 pokoje | Balkon | Blisko Centrum | Garaż,580329.0,PLN,15300.0,37.93,2.0,Pomorskie,Gdansk,,54.3706835,18.68987,,
mzn2045329185,morizon,https://www.morizon.pl/oferta/sprzedaz-mieszkanie-gdansk-srodmiescie-lastadia-50m2-mzn2045329185,50 m² w sercu Gdańska – gotowe do zamieszkania lub,689000.0,PLN,13698.0,50.3,2.0,Gdansk,Srodmiescie,Lastadia,54.35035155,18.6558259,,
mzn2046246992,morizon,https://www.morizon.pl/oferta/sprzedaz-mieszkanie-gdansk-brzezno-bogumila-kobieli-34m2-mzn2046246992,Mieszkanie nad samym morzem,667680.0,PLN,19500.0,34.24,2.0,Gdansk,Brzezno,Bogumila,54.4045806,18.63265165,,
mzn2044560803,morizon,https://www.morizon.pl/oferta/sprzedaz-mieszkanie-gdansk-srodmiescie-wiosny-ludow-39m2-mzn2044560803,Mieszkanie 2-pokojowe w centrum Gdańska,822360.0,PLN,21000.0,39.16,2.0,Gdansk,Srodmiescie,Wiosny,54.3572917,18.6654718,,
mzn2044560905,morizon,https://www.morizon.pl/oferta/sprzedaz-mieszkanie-gdansk-wrzeszcz-aleja-gen-jozefa-hallera-48m2-mzn2044560905,Mieszkanie 2-pokojowe Gdańsk Wrzeszcz,840816.0,PLN,17322.0,48.54,2.0,Gdansk,Wrzeszcz,Aleja,54.391633,18.5996092,,
mzn2044560804,morizon,https://www.morizon.pl/oferta/sprzedaz-mieszkanie-gdansk-srodmiescie-wiosny-ludow-54m2-mzn2044560804,Mieszkanie 3 - pokojowe w centrum Gdańska,1208900.0,PLN,22000.0,54.95,3.0,Gdansk,Srodmiescie,Wiosny,54.3572917,18.6654718,,
mzn2040372260,morizon,https://www.morizon.pl/oferta/sprzedaz-mieszkanie-gdansk-srodmiescie-lakowa-54m2-mzn2040372260,Apartament dwa pokoje w świetnej lokalizacji,1323000.0,PLN,24500.0,54.0,2.0,Gdansk,Srodmiescie,Lakowa,54.3419532,18.6603855,,
mzn2046246989,morizon,https://www.morizon.pl/oferta/sprzedaz-mieszkanie-gdansk-brzezno-bogumila-kobieli-78m2-mzn2046246989,Przestronne mieszkanie nad samym morzem,1360818.0,PLN,17300.0,78.66,3.0,Gdansk,Brzezno,Bogumila,54.4045806,18.63265165,,
mzn2046249083,morizon,https://www.morizon.pl/oferta/sprzedaz-mieszkanie-gdansk-brzezno-bogumila-kobieli-92m2-mzn2046249083,Przestronny apartament nad samym morzem,1607170.0,PLN,17300.0,92.9,4.0,Gdansk,Brzezno,Bogumila,54.4045806,18.63265165,,
mzn2045860067,morizon,https://www.morizon.pl/oferta/sprzedaz-mieszkanie-gdansk-ujescisko-lostowice-piotrkowska-62m2-mzn2045860067,Trzypokojowe mieszkanie w świetnej lokalizacji,850000.0,PLN,13600.0,62.5,3.0,Gdansk,Ujescisko,Lostowice,54.31911,18.5918006,,
mzn2044204213,morizon,https://www.morizon.pl/oferta/sprzedaz-mieszkanie-gdansk-wyspa-sobieszewska-28m2-mzn2044204213,Apartamenty wśród rezerwatu i blisko morza,457280.0,PLN,16000.0,28.58,2.0,Gdansk,Wyspa,Sobieszewska,54.3495744,18.8163304,,
mzn2045634058,morizon,https://www.morizon.pl/oferta/sprzedaz-mieszkanie-pomorskie-gdansk-borkowska-36m2-mzn2045634058,Mieszkanie z ogródkiem Borkowo,543353.0,PLN,14725.0,36.9,2.0,Pomorskie,Gdansk,Borkowska,53.0523328,18.5742279,,
mzn2045675012,morizon,https://www.morizon.pl/oferta/sprzedaz-mieszkanie-gdansk-ujescisko-lostowice-hilarego-koprowskiego-49m2-mzn2045675012,Piękne mieszkanie czeka na Ciebie,660000.0,PLN,13325.0,49.53,3.0,Gdansk,Ujescisko,Lostowice,54.3119715,18.5930729,,
mzn2041237249,morizon,https://www.morizon.pl/oferta/sprzedaz-mieszkanie-gdansk-wyspa-sobieszewska-nadwislanska-27m2-mzn2041237249,Kawalerka z balkonem nad morzem,660000.0,PLN,23835.0,27.69,2.0,Gdansk,Wyspa,Sobieszewska,54.3495744,18.8163304,,
mzn2045376412,morizon,https://www.morizon.pl/oferta/sprzedaz-mieszkanie-gdansk-wyspa-sobieszewska-42m2-mzn2045376412,Apartament | Balkon | Bliskość morza,681760.0,PLN,16000.0,42.61,3.0,Gdansk,Wyspa,Sobieszewska,54.3495744,18.8163304,,
mzn2044204216,morizon,https://www.morizon.pl/oferta/sprzedaz-mieszkanie-gdansk-wyspa-sobieszewska-42m2-mzn2044204216,Apartament z balkonem blisko plaży,683040.0,PLN,16000.0,42.69,3.0,Gdansk,Wyspa,Sobieszewska,54.3495744,18.8163304,,
mzn2043957212,morizon,https://www.morizon.pl/oferta/sprzedaz-mieszkanie-gdansk-letnica-letnicka-43m2-mzn2043957212,2 Pokoje w nowej inwestycji nad morzem,811220.0,PLN,18496.0,43.86,2.0,Gdansk,Letnica,Letnicka,54.4036178,18.6511808,,
mzn2044560802,morizon,https://www.morizon.pl/oferta/sprzedaz-mieszkanie-gdansk-srodmiescie-wiosny-ludow-26m2-mzn2044560802,Kawalerka w centrum Gdańska,661750.0,PLN,25000.0,26.47,2.0,Gdansk,Srodmiescie,Wiosny,54.3572917,18.6654718,,
mzn2045628055,morizon,https://www.morizon.pl/oferta/sprzedaz-mieszkanie-gdansk-wrzeszcz-twarda-48m2-mzn2045628055,"Inwestycja, 2 pokoje, Wrzeszcz",853983.0,PLN,17550.0,48.66,2.0,Gdansk,Wrzeszcz,Twarda,54.3767209,18.6351035,,
mzn2046426932,morizon,https://www.morizon.pl/oferta/sprzedaz-mieszkanie-gdansk-srodmiescie-40m2-mzn2046426932,2 pok balkon osobna kuchnia cicha część Starówki,777000.0,PLN,19425.0,40.0,2.0,Gdansk,Srodmiescie,,54.35035155,18.6558259,,
mzn2044899832,morizon,https://www.morizon.pl/oferta/sprzedaz-mieszkanie-gdansk-srodmiescie-kamienna-grobla-28-29-141m2-mzn2044899832,Mieszkanie na sprzedaż - 141 m² - 4 pokoje Śródmieście Gdańsk,356000.0,PLN,19567.0,18.19,4.0,Gdansk,Srodmiescie,Kamienna,54.3828698,18.5708707,,
mzn2046410992,morizon,https://www.morizon.pl/oferta/sprzedaz-mieszkanie-gdansk-chelm-stanislawa-hebanowskiego-64m2-mzn2046410992,Przestronne 3-pokoje z pięknym widokiem,737000.0,PLN,11426.0,64.5,3.0,Gdansk,Chelm,Stanislawa,54.3456846,18.662427,,
mzn2045886151,morizon,https://www.morizon.pl/oferta/sprzedaz-mieszkanie-gdansk-zabianka-wejhera-jelitkowo-tysiaclecia-jakuba-wejhera-28m2-mzn2045886151,Stylowa kawalerka na 1 piętrze blisko morza,444000.0,PLN,15784.0,28.13,2.0,Gdansk,Zabianka,Wejhera,54.420412,18.5831153,,
mzn2045175731,morizon,https://www.morizon.pl/oferta/sprzedaz-mieszkanie-gdansk-ujescisko-lostowice-olimpijska-47m2-mzn2045175731,Przytulne 2 pokoje z balkonem,580000.0,PLN,12098.0,47.94,2.0,Gdansk,Ujescisko,Lostowice,54.3119715,18.5930729,,
mzn2042015930,morizon,https://www.morizon.pl/oferta/sprzedaz-mieszkanie-gdansk-zaspa-pilotow-21-98m2-mzn2042015930,Mieszkanie na sprzedaż - 98 m² - 4 pokoje Zaspa Gdańsk,1573635.0,PLN,15905.0,98.94,4.0,Gdansk,Zaspa,Pilotow,54.3960795,18.5887179,,
mzn2045153372,morizon,https://www.morizon.pl/oferta/sprzedaz-mieszkanie-gdansk-srodmiescie-rybaki-gorne-75m2-mzn2045153372,Mieszkanie - Gdańsk Śródmieście,1744447.0,PLN,23259.0,75.0,4.0,Gdansk,Srodmiescie,Rybaki,54.35035155,18.6558259,,
mzn2045228013,morizon,https://www.morizon.pl/oferta/sprzedaz-mieszkanie-gdansk-wyspa-sobieszewska-klimatyczna-35m2-mzn2045228013,Apartamenty Klimatyczna dwa pokoje A1/2,2449000.0,PLN,12493.0,196.03,2.0,Gdansk,Wyspa,Sobieszewska,54.3495744,18.8163304,,
mzn2045844742,morizon,https://www.morizon.pl/oferta/sprzedaz-mieszkanie-gdansk-srodmiescie-26m2-mzn2045844742,Inwestycyjna/Kawalerka/4minuty do Mariny/Tramwaj,308000.0,PLN,11778.0,26.15,2.0,Gdansk,Srodmiescie,,54.35035155,18.6558259,,
mzn2046274555,morizon,https://www.morizon.pl/oferta/sprzedaz-mieszkanie-gdansk-wrzeszcz-65m2-mzn2046274555,Gotowe w Grudniu/obok przystanek/5 min do CH FORUM,937863.0,PLN,14429.0,69.0,4.0,Gdansk,Wrzeszcz,,54.379389950000004,18.60313655,,
mzn2043301265,morizon,https://www.morizon.pl/oferta/sprzedaz-mieszkanie-gdansk-srodmiescie-stara-stocznia-88m2-mzn2043301265,Frontowy apartament w inwestycji Brabank,2990000.0,PLN,33977.0,88.0,3.0,Gdansk,Srodmiescie,Stara,54.3191523,18.6243062,,
mzn2046147406,morizon,https://www.morizon.pl/oferta/sprzedaz-mieszkanie-gdansk-srodmiescie-26m2-mzn2046147406,GOTOWE DO ODBIORU/Stare Miasto/4minuty do Mariny,306000.0,PLN,11693.0,26.17,2.0,Gdansk,Srodmiescie,,54.35035155,18.6558259,,
